,StationName,Latitude,Longitude,2019-03-16 00:00:00,2019-03-16 04:00:00,2019-03-16 08:00:00,2019-03-16 12:00:00,2019-03-16 16:00:00,2019-03-16 20:00:00,2019-03-17 00:00:00,2019-03-17 04:00:00,2019-03-17 08:00:00,2019-03-17 12:00:00,2019-03-17 16:00:00,2019-03-17 20:00:00,2019-03-18 00:00:00,2019-03-18 04:00:00,2019-03-18 08:00:00,2019-03-18 12:00:00,2019-03-18 16:00:00,2019-03-18 20:00:00,2019-03-19 00:00:00,2019-03-19 04:00:00,2019-03-19 08:00:00,2019-03-19 12:00:00,2019-03-19 16:00:00,2019-03-19 20:00:00,2019-03-20 00:00:00,2019-03-20 04:00:00,2019-03-20 08:00:00,2019-03-20 12:00:00,2019-03-20 16:00:00,2019-03-20 20:00:00,2019-03-21 00:00:00,2019-03-21 04:00:00,2019-03-21 08:00:00,2019-03-21 12:00:00,2019-03-21 16:00:00,2019-03-21 20:00:00,2019-03-22 00:00:00,2019-03-22 04:00:00,2019-03-22 08:00:00,2019-03-22 12:00:00,2019-03-22 16:00:00
0,34 ST-HERALD SQ,40.748897899999996,-73.98878859999998,6307.0,5910.0,25865.0,45119.0,51318.0,27575.0,5377.0,4866.0,21503.0,35464.0,37298.0,17635.0,2326.0,16750.0,61235.0,43002.0,86199.0,26643.0,3418.0,17788.0,61156.0,43873.0,86939.0,29770.0,3555.0,17564.0,62440.0,45200.0,87754.0,30415.0,3911.0,11532.0,41355.0,37250.0,71125.0,30348.0,4090.0,16149.0,59242.0,47815.0,85585.0
1,TIMES SQ-42 ST,40.7545563,-73.98667370000001,6908.0,4476.0,19425.0,35346.0,42534.0,27982.0,6416.0,3664.0,21054.0,27502.0,30041.0,17477.0,2926.0,13742.0,48013.0,31683.0,62876.0,22316.0,3544.0,14211.0,49856.0,33506.0,67146.0,27174.0,4031.0,14092.0,51253.0,36568.0,69167.0,28725.0,4465.0,13959.0,49469.0,34313.0,66854.0,27257.0,3888.0,11285.0,47437.0,36289.0,65567.0
2,34 ST-PENN STA,40.751056,-73.99031020000001,4875.0,7070.0,26529.0,39854.0,43090.0,21598.0,3839.0,4537.0,22758.0,35528.0,32966.0,15120.0,2002.0,26519.0,64272.0,38653.0,80606.0,15874.0,828.0,27857.0,64633.0,39751.0,82975.0,17705.0,818.0,27052.0,63807.0,40926.0,83407.0,19456.0,881.0,27014.0,64102.0,35269.0,73677.0,16920.0,1018.0,24498.0,61604.0,44890.0,77529.0
3,59 ST COLUMBUS,40.7684839,-73.98180699999999,2608.0,3410.0,15397.0,25496.0,25604.0,12177.0,2384.0,2781.0,23372.0,22822.0,18483.0,7431.0,1048.0,10238.0,31939.0,28479.0,42381.0,13831.0,1491.0,10998.0,33044.0,28904.0,44115.0,16089.0,1752.0,10812.0,32881.0,29742.0,44396.0,16129.0,1787.0,10496.0,32849.0,28477.0,42514.0,14766.0,1742.0,9524.0,30041.0,28099.0,38423.0
4,86 ST,40.7795016,-73.95557240000001,1995.0,3199.0,14861.0,24761.0,25174.0,9920.0,1556.0,2354.0,11113.0,18826.0,16264.0,6063.0,707.0,12466.0,29237.0,25049.0,30884.0,9848.0,736.0,13402.0,29933.0,25480.0,38213.0,10828.0,948.0,12968.0,30390.0,25676.0,36821.0,10680.0,943.0,12601.0,30621.0,26469.0,36021.0,10477.0,845.0,11366.0,30067.0,27640.0,36286.0
5,GRD CNTRL-42 ST,40.75216470000001,-73.97715339999998,2773.0,3056.0,16547.0,26850.0,23229.0,10437.0,2077.0,1936.0,12413.0,17355.0,16472.0,7039.0,848.0,15918.0,44058.0,24840.0,50691.0,10516.0,1391.0,15921.0,45320.0,26145.0,52229.0,12122.0,1449.0,16158.0,43709.0,26798.0,52302.0,12141.0,1502.0,15737.0,46476.0,28442.0,55804.0,12652.0,1607.0,14149.0,41319.0,28214.0,48604.0
6,59 ST,40.6415685,-74.0176783,933.0,3903.0,7464.0,23183.0,20054.0,8352.0,1810.0,2607.0,10559.0,15323.0,13523.0,5928.0,1027.0,12038.0,31952.0,23279.0,39239.0,10649.0,1571.0,13469.0,33784.0,24607.0,40712.0,11397.0,1535.0,13398.0,34229.0,25209.0,40714.0,11404.0,1735.0,13099.0,33377.0,24314.0,39268.0,11388.0,1646.0,12239.0,32564.0,25311.0,37812.0
7,FLUSHING-MAIN,40.75955820000001,-73.82992209999998,2298.0,5938.0,16494.0,18889.0,20565.0,11879.0,2108.0,3385.0,12655.0,15850.0,15858.0,8910.0,1349.0,17378.0,25516.0,19700.0,31113.0,12994.0,1514.0,17675.0,25863.0,20412.0,32395.0,13229.0,1588.0,17466.0,25843.0,20197.0,32122.0,13108.0,1772.0,17165.0,24367.0,19110.0,30971.0,12238.0,1634.0,16180.0,24487.0,19484.0,30503.0
8,ATL AV-BARCLAY,40.6837598,-73.97875739999998,2092.0,2222.0,10772.0,20380.0,19986.0,9294.0,2455.0,2125.0,9799.0,17149.0,14492.0,5628.0,958.0,7287.0,17477.0,16068.0,27195.0,7524.0,864.0,7550.0,17307.0,16326.0,27626.0,8352.0,908.0,8871.0,21079.0,16693.0,27697.0,8453.0,1142.0,8715.0,20282.0,16027.0,26067.0,8208.0,1105.0,7854.0,19940.0,18216.0,27722.0
9,23 ST,40.7413626,-73.9891335,2545.0,1886.0,11972.0,21349.0,22246.0,10841.0,2720.0,1827.0,9306.0,17675.0,17893.0,7595.0,942.0,7207.0,32342.0,24103.0,45603.0,11829.0,815.0,7814.0,34497.0,25277.0,47624.0,13415.0,790.0,7652.0,34122.0,26015.0,47719.0,13457.0,1016.0,7411.0,34163.0,25692.0,48713.0,14061.0,1028.0,6867.0,31383.0,26290.0,43685.0
10,42 ST-PORT AUTH,40.7578346,-73.99146259999998,1915.0,4723.0,15593.0,18382.0,19253.0,11903.0,1908.0,2833.0,12532.0,15456.0,16185.0,9709.0,909.0,21038.0,33256.0,18349.0,38624.0,10762.0,801.0,20898.0,34352.0,18220.0,38505.0,11498.0,832.0,20713.0,33510.0,18649.0,38460.0,11217.0,883.0,21555.0,36306.0,20629.0,45609.0,13156.0,1058.0,20411.0,34264.0,22148.0,40159.0
11,14 ST,40.73747540000001,-73.9970975,2680.0,1864.0,10827.0,21242.0,21122.0,10678.0,2535.0,1698.0,7442.0,14719.0,14037.0,6197.0,865.0,4456.0,16957.0,13881.0,24346.0,8979.0,1337.0,4933.0,18123.0,14639.0,25642.0,10346.0,1559.0,4936.0,18249.0,15095.0,26056.0,10651.0,1652.0,3888.0,14940.0,14589.0,24598.0,10794.0,1627.0,4359.0,17023.0,15543.0,25043.0
12,JKSN HT-ROOSVLT,40.746739,-73.89099859999999,3484.0,6048.0,14317.0,17595.0,17360.0,10336.0,3062.0,3964.0,10630.0,14158.0,13319.0,8342.0,1727.0,12345.0,20702.0,17389.0,24103.0,10407.0,1992.0,12696.0,20791.0,17216.0,24344.0,10619.0,2229.0,12591.0,,,24785.0,10937.0,2215.0,12262.0,20110.0,16761.0,23457.0,10057.0,2215.0,11850.0,20300.0,18079.0,25200.0
13,BEDFORD AV,40.717354,-73.956972,61.0,74.0,107.0,11.0,9.0,3.0,2.0,2.0,6.0,8.0,5.0,1.0,1.0,3375.0,10538.0,8972.0,14444.0,6631.0,406.0,3477.0,11228.0,8427.0,15035.0,7403.0,609.0,3452.0,10854.0,8921.0,15059.0,8116.0,623.0,3035.0,10529.0,8662.0,16562.0,7161.0,644.0,2850.0,9825.0,9040.0,15137.0
14,47-50 STS ROCK,40.75885,-73.98118610000002,1854.0,2262.0,8708.0,16717.0,14752.0,6968.0,1332.0,1725.0,6680.0,9664.0,10367.0,4562.0,787.0,9676.0,40599.0,19325.0,43856.0,9395.0,1682.0,10779.0,41556.0,20303.0,44080.0,10264.0,1808.0,10740.0,42118.0,20963.0,44548.0,10257.0,1993.0,10534.0,42132.0,21237.0,46541.0,10621.0,2007.0,9769.0,39798.0,23083.0,40604.0
15,34 ST-HUDSON YD,40.7549713,-74.0010084,546.0,1232.0,4466.0,15771.0,15997.0,3977.0,402.0,661.0,3557.0,13017.0,12506.0,2328.0,161.0,3698.0,8026.0,9608.0,12035.0,2989.0,347.0,3988.0,8229.0,9785.0,12451.0,3214.0,337.0,3973.0,8551.0,10413.0,13404.0,3590.0,401.0,3983.0,8064.0,8422.0,11279.0,3328.0,433.0,3812.0,8800.0,11242.0,14443.0
16,CHAMBERS ST,40.7155134,-74.00922270000001,1401.0,1767.0,10061.0,16089.0,13715.0,6597.0,1075.0,1273.0,7503.0,11685.0,9578.0,3752.0,500.0,9407.0,31559.0,26224.0,38696.0,8594.0,647.0,9865.0,32538.0,27219.0,40876.0,9460.0,678.0,9845.0,32078.0,27210.0,39696.0,9293.0,759.0,9565.0,31019.0,25911.0,38709.0,9017.0,705.0,8416.0,26914.0,25734.0,35424.0
17,125 ST,40.8043863,-73.9374292,2250.0,2729.0,9828.0,14092.0,13599.0,7767.0,2013.0,1820.0,7075.0,11435.0,11336.0,5798.0,1109.0,7857.0,15592.0,14150.0,20091.0,6808.0,1106.0,8087.0,16268.0,14373.0,20958.0,7757.0,1181.0,8116.0,16735.0,15096.0,21308.0,8153.0,1224.0,7745.0,15820.0,14122.0,20450.0,7946.0,1186.0,7222.0,15575.0,15241.0,21315.0
18,57 ST-7 AV,40.765564000000005,-73.9803309,1383.0,1580.0,6687.0,11807.0,11944.0,5981.0,959.0,2090.0,9595.0,9381.0,8317.0,3983.0,531.0,4530.0,16243.0,11059.0,20967.0,6887.0,803.0,4677.0,16546.0,11603.0,22398.0,8878.0,889.0,4511.0,16424.0,11789.0,22400.0,8676.0,914.0,4626.0,16409.0,11806.0,21860.0,8735.0,984.0,4311.0,15680.0,11948.0,20207.0
19,GRAND ST,40.7182003,-73.9935756,989.0,1183.0,6805.0,9874.0,10291.0,5176.0,970.0,837.0,6714.0,8159.0,7968.0,3227.0,324.0,5029.0,14058.0,12745.0,16437.0,5202.0,435.0,5174.0,14114.0,12843.0,16870.0,5837.0,518.0,5211.0,14369.0,12893.0,17183.0,6079.0,613.0,5103.0,13780.0,12113.0,15432.0,5780.0,576.0,4865.0,13661.0,13160.0,18314.0
20,145 ST,40.8240532,-73.94476230000001,2683.0,3112.0,10078.0,12416.0,12734.0,8403.0,2790.0,2383.0,7348.0,10700.0,10233.0,5977.0,1422.0,8307.0,16431.0,13167.0,19094.0,9639.0,2027.0,8517.0,16793.0,13153.0,19581.0,10501.0,2110.0,8719.0,16902.0,13832.0,19901.0,10725.0,2072.0,8249.0,16589.0,13055.0,18577.0,9833.0,2355.0,7851.0,15808.0,13611.0,17512.0
21,42 ST-BRYANT PK,40.75483679999999,-73.9841215,1810.0,1485.0,6755.0,11888.0,12638.0,6457.0,1618.0,1347.0,9149.0,7612.0,7878.0,3814.0,789.0,5476.0,23574.0,13708.0,30266.0,7864.0,1622.0,6157.0,24444.0,14467.0,31402.0,8729.0,1791.0,6049.0,25689.0,15309.0,32238.0,9286.0,1786.0,5869.0,23325.0,15322.0,31165.0,9171.0,1781.0,5458.0,23007.0,15317.0,28752.0
22,2 AV,40.723412700000004,-73.9902885,2104.0,977.0,4262.0,7049.0,9135.0,6932.0,2425.0,1007.0,3495.0,6475.0,6734.0,3758.0,537.0,2445.0,7348.0,5641.0,10461.0,4945.0,668.0,2648.0,7722.0,6087.0,10867.0,5794.0,856.0,2706.0,7788.0,6475.0,11087.0,6101.0,861.0,2578.0,7938.0,6529.0,11434.0,6561.0,989.0,2559.0,7933.0,7109.0,12321.0
23,50 ST,40.7620363,-73.98632909999998,2743.0,2037.0,8611.0,13327.0,15451.0,9721.0,2599.0,1758.0,8452.0,11627.0,11238.0,6161.0,974.0,7907.0,24286.0,16610.0,29956.0,8190.0,972.0,7924.0,24500.0,16658.0,31971.0,10138.0,1110.0,8173.0,24852.0,18099.0,32231.0,10520.0,1077.0,7967.0,24934.0,18180.0,34579.0,12465.0,1228.0,7506.0,24338.0,18139.0,31887.0
24,CHURCH AV,40.6495233,-73.96328390000001,2007.0,3532.0,8723.0,9549.0,10011.0,5995.0,1801.0,2733.0,7026.0,8265.0,8106.0,4580.0,1197.0,8247.0,12370.0,9622.0,14538.0,5317.0,984.0,8328.0,12744.0,9448.0,14920.0,5870.0,1105.0,8433.0,12944.0,9788.0,15018.0,5917.0,1048.0,7795.0,12207.0,9316.0,13899.0,5742.0,1029.0,7576.0,12287.0,10247.0,13780.0
25,PRINCE ST,40.7242353,-73.99780600000001,344.0,250.0,1870.0,3850.0,4388.0,1490.0,467.0,262.0,2084.0,5852.0,5934.0,1591.0,166.0,942.0,5231.0,5106.0,8559.0,1711.0,88.0,891.0,5725.0,5332.0,9401.0,2081.0,152.0,867.0,5572.0,5732.0,9646.0,2091.0,118.0,860.0,5456.0,5529.0,9385.0,2214.0,120.0,835.0,5610.0,6192.0,9911.0
26,SPRING ST,40.7257799,-74.00395209999998,954.0,614.0,4065.0,9822.0,11547.0,4705.0,901.0,415.0,2877.0,7180.0,7794.0,2839.0,317.0,1735.0,8143.0,8775.0,15582.0,3455.0,236.0,1685.0,8284.0,8621.0,15958.0,3969.0,272.0,1908.0,8238.0,8924.0,16218.0,4140.0,263.0,1587.0,8101.0,8765.0,16656.0,4304.0,302.0,1654.0,8279.0,10164.0,16292.0
27,LEXINGTON AV/63,40.764629,-73.96611299999998,775.0,1259.0,6415.0,9916.0,8467.0,3580.0,876.0,1274.0,4209.0,6393.0,5359.0,2334.0,322.0,4238.0,12457.0,8813.0,14038.0,4904.0,724.0,4863.0,12897.0,9448.0,14609.0,4989.0,765.0,4644.0,12796.0,9175.0,14497.0,5174.0,861.0,4675.0,12406.0,9275.0,14427.0,5213.0,842.0,4280.0,12237.0,9516.0,12836.0
28,NOSTRAND AV,40.6697362,-73.95050890000002,1290.0,1501.0,5730.0,7491.0,7008.0,4604.0,1187.0,1151.0,4471.0,5849.0,5411.0,3151.0,625.0,4722.0,10280.0,7009.0,10507.0,4553.0,697.0,4960.0,10687.0,6760.0,11094.0,4920.0,748.0,5007.0,10518.0,6979.0,10785.0,5019.0,836.0,4680.0,10260.0,6809.0,10241.0,4646.0,799.0,4379.0,10209.0,7777.0,10571.0
29,JAY ST-METROTEC,40.6922507,-73.9872792,1103.0,1177.0,5916.0,9567.0,8456.0,3876.0,988.0,1082.0,4568.0,7098.0,6097.0,2575.0,467.0,5204.0,18329.0,16067.0,23352.0,5610.0,608.0,5291.0,18570.0,16202.0,24050.0,6340.0,642.0,5367.0,18345.0,16892.0,24103.0,6102.0,664.0,5197.0,18221.0,15489.0,23517.0,5779.0,697.0,4802.0,16848.0,15794.0,20693.0
30,1 AV,40.7312776,-73.9823439,40.0,52.0,35.0,39.0,37.0,18.0,15.0,22.0,34.0,24.0,15.0,26.0,18.0,4187.0,9681.0,7919.0,11776.0,4893.0,385.0,4492.0,9878.0,7686.0,12786.0,5741.0,449.0,4478.0,10245.0,8156.0,13021.0,5927.0,492.0,4375.0,10246.0,8785.0,13376.0,6126.0,506.0,4087.0,10463.0,9182.0,13567.0
31,STEINWAY ST,40.756691700000005,-73.92064090000001,1004.0,1203.0,5285.0,8095.0,8086.0,4882.0,1247.0,940.0,4144.0,6100.0,5970.0,3515.0,402.0,3241.0,6692.0,5497.0,7680.0,3161.0,338.0,3452.0,6894.0,5714.0,7662.0,3102.0,382.0,3351.0,7186.0,5822.0,7997.0,3091.0,427.0,3165.0,6961.0,5347.0,7540.0,3157.0,390.0,2952.0,6658.0,5772.0,8002.0
32,JUNCTION BLVD,40.749203,-73.8693365,1424.0,5102.0,7152.0,7545.0,7721.0,4354.0,1482.0,2819.0,5587.0,6493.0,6129.0,3152.0,704.0,7975.0,7726.0,6626.0,11616.0,4158.0,985.0,8254.0,7962.0,6960.0,11830.0,4205.0,1147.0,8376.0,7795.0,6793.0,11823.0,4483.0,1054.0,7888.0,7803.0,6807.0,10629.0,4197.0,1132.0,7796.0,8145.0,7074.0,11356.0
33,DEKALB AV,40.68982020000001,-73.9811611,700.0,771.0,3273.0,5054.0,5144.0,2497.0,691.0,815.0,3120.0,4221.0,3932.0,1667.0,324.0,6278.0,13908.0,9346.0,12579.0,3780.0,509.0,6727.0,14222.0,9624.0,13164.0,4169.0,573.0,6571.0,14388.0,9795.0,12939.0,4363.0,619.0,6344.0,14013.0,9280.0,12422.0,4057.0,582.0,5945.0,13411.0,9606.0,12105.0
34,BOROUGH HALL,40.6931492,-73.9900883,697.0,906.0,4837.0,7937.0,6998.0,3110.0,644.0,546.0,3404.0,5776.0,4977.0,1956.0,250.0,4137.0,17527.0,13639.0,18986.0,3999.0,478.0,4401.0,18492.0,14133.0,19914.0,4368.0,350.0,4507.0,18436.0,14429.0,19722.0,4787.0,436.0,4457.0,17063.0,13505.0,18542.0,4884.0,464.0,3985.0,16796.0,14268.0,17315.0
35,CROWN HTS-UTICA,40.6689469,-73.93183379999998,1393.0,2416.0,5806.0,6951.0,6923.0,4453.0,1234.0,1601.0,4311.0,5581.0,5529.0,3415.0,842.0,8451.0,11189.0,7941.0,12443.0,5029.0,974.0,8856.0,11547.0,8080.0,13070.0,5417.0,1135.0,8857.0,11463.0,8507.0,13066.0,5392.0,1292.0,8432.0,10491.0,7580.0,12120.0,5185.0,1183.0,7913.0,11037.0,8766.0,12192.0
36,8 ST-NYU,40.7306065,-73.99244159999998,598.0,288.0,1680.0,3500.0,4102.0,2484.0,892.0,346.0,2377.0,4959.0,5793.0,3241.0,366.0,1384.0,6178.0,4414.0,9173.0,2926.0,214.0,1433.0,6595.0,4769.0,9973.0,3385.0,234.0,1429.0,6411.0,4726.0,10117.0,3632.0,292.0,1421.0,6703.0,4766.0,10269.0,3704.0,325.0,1316.0,6409.0,5364.0,10032.0
37,CANAL ST,40.722713899999995,-74.00630600000001,757.0,807.0,3555.0,6929.0,7305.0,3111.0,676.0,550.0,3233.0,5674.0,5271.0,1795.0,255.0,2781.0,10005.0,7213.0,13861.0,1818.0,6.0,3004.0,10512.0,7819.0,14526.0,2338.0,36.0,2740.0,10686.0,7937.0,14697.0,2231.0,7.0,2848.0,10346.0,7560.0,14589.0,2002.0,4.0,2637.0,9682.0,8166.0,13306.0
38,QUEENSBORO PLZ,40.7505127,-73.9398439,510.0,2209.0,7771.0,8858.0,6905.0,3318.0,910.0,1429.0,5485.0,6339.0,4552.0,2402.0,264.0,2042.0,5223.0,4154.0,5601.0,1673.0,349.0,1979.0,5358.0,4019.0,5982.0,1911.0,390.0,2033.0,5409.0,4100.0,5912.0,1939.0,382.0,1885.0,5154.0,4062.0,5700.0,1851.0,406.0,1787.0,5294.0,4211.0,5705.0
39,MYRTLE-WYCKOFF,40.699686,-73.9117713,954.0,1626.0,3602.0,4131.0,3598.0,2305.0,776.0,896.0,2718.0,3484.0,2030.0,1344.0,471.0,5267.0,7786.0,5366.0,7762.0,3472.0,788.0,5473.0,8031.0,5491.0,7811.0,3727.0,708.0,5444.0,8123.0,5552.0,7846.0,,,5270.0,7780.0,5473.0,7354.0,3615.0,837.0,5043.0,7861.0,5835.0,7820.0
40,51 ST,40.757135,-73.97191190000001,762.0,984.0,3685.0,6539.0,5528.0,2563.0,555.0,846.0,3004.0,4273.0,3720.0,1467.0,256.0,3624.0,13877.0,7655.0,13917.0,3280.0,534.0,3688.0,14594.0,8154.0,14344.0,3678.0,573.0,3808.0,14323.0,8300.0,14601.0,3812.0,624.0,3554.0,14478.0,8519.0,15218.0,3842.0,616.0,3390.0,14163.0,9148.0,14356.0
41,COURT SQ,40.7467885,-73.944548,732.0,1196.0,3048.0,4679.0,4572.0,2340.0,638.0,660.0,2079.0,3564.0,3228.0,1703.0,330.0,4433.0,10705.0,6251.0,11656.0,3841.0,642.0,4502.0,11071.0,6442.0,12064.0,3986.0,775.0,4687.0,11279.0,6453.0,12074.0,3981.0,710.0,4607.0,11028.0,6464.0,11386.0,3910.0,675.0,4080.0,10046.0,6322.0,9932.0
42,JAMAICA CENTER,40.702144700000005,-73.8008771,1729.0,3437.0,,,7015.0,3912.0,1232.0,2215.0,3735.0,4399.0,4944.0,3135.0,1160.0,14374.0,14471.0,13032.0,19095.0,6208.0,1404.0,15033.0,14826.0,12622.0,20237.0,6839.0,1408.0,14915.0,15184.0,13162.0,19815.0,6950.0,1433.0,14328.0,14623.0,12631.0,18139.0,5996.0,1499.0,13418.0,13088.0,12231.0,17483.0
43,49 ST,40.7598372,-73.98418249999999,1307.0,903.0,3833.0,6952.0,8328.0,5332.0,1288.0,887.0,5176.0,5880.0,6773.0,3815.0,523.0,3322.0,10739.0,7187.0,15440.0,5774.0,746.0,3417.0,11251.0,7663.0,16785.0,7192.0,890.0,3499.0,11402.0,8154.0,16922.0,7088.0,960.0,3509.0,11327.0,8225.0,17850.0,7602.0,1148.0,3119.0,11282.0,8214.0,16759.0
44,BOWLING GREEN,40.7048108,-74.0144596,667.0,1124.0,4729.0,8283.0,6891.0,2096.0,517.0,640.0,3238.0,5173.0,4210.0,1378.0,289.0,5882.0,17370.0,11310.0,19360.0,3082.0,451.0,5750.0,18287.0,11966.0,20171.0,3273.0,496.0,6057.0,18111.0,11899.0,20275.0,3459.0,523.0,5879.0,17092.0,10948.0,18843.0,3203.0,454.0,5354.0,16187.0,11582.0,17218.0
45,BLEECKER ST,40.7259346,-73.9946724,1222.0,574.0,2311.0,5003.0,6297.0,3468.0,1177.0,449.0,1607.0,3721.0,4237.0,2259.0,430.0,1243.0,4922.0,3646.0,7146.0,2857.0,411.0,1333.0,5241.0,3931.0,7382.0,3160.0,451.0,1346.0,5171.0,4020.0,7480.0,3217.0,491.0,1324.0,5057.0,4073.0,7232.0,3394.0,568.0,1207.0,4973.0,4406.0,7725.0
46,VERNON-JACKSON,40.7426713,-73.9537248,534.0,619.0,3213.0,4528.0,4698.0,2444.0,480.0,382.0,2524.0,3758.0,3406.0,1518.0,187.0,3201.0,8256.0,3877.0,7140.0,2358.0,240.0,3438.0,8584.0,4188.0,7540.0,2832.0,262.0,3366.0,8479.0,4403.0,8016.0,3001.0,325.0,3291.0,8258.0,4033.0,7189.0,2774.0,298.0,2715.0,7335.0,4266.0,7734.0
47,28 ST,40.7470686,-73.99350919999998,382.0,403.0,1951.0,2791.0,2849.0,1684.0,533.0,376.0,2505.0,3778.0,3530.0,1672.0,253.0,1591.0,7471.0,4988.0,9500.0,2172.0,201.0,1615.0,8031.0,5385.0,10080.0,2334.0,180.0,1604.0,8076.0,5718.0,10450.0,2606.0,207.0,1650.0,7876.0,5793.0,10880.0,2914.0,351.0,1399.0,7419.0,5925.0,9582.0
48,SUTPHIN-ARCHER,40.700572799999996,-73.8077071,1326.0,2260.0,4442.0,5111.0,5355.0,3173.0,1044.0,1595.0,3232.0,4064.0,4638.0,3229.0,873.0,8388.0,9255.0,9009.0,12407.0,4755.0,1074.0,8502.0,9402.0,8854.0,12361.0,4862.0,1122.0,8368.0,9367.0,9097.0,12503.0,4986.0,1114.0,8365.0,9039.0,8767.0,12688.0,4540.0,1173.0,8183.0,9068.0,9241.0,12633.0
49,FORDHAM RD,40.8614886,-73.8905408,820.0,2191.0,4224.0,5468.0,4519.0,2480.0,830.0,1474.0,3017.0,4172.0,3807.0,1924.0,609.0,5750.0,6664.0,6248.0,8037.0,2677.0,711.0,5891.0,6786.0,6099.0,7991.0,2785.0,752.0,5911.0,7013.0,6639.0,8278.0,2839.0,694.0,5544.0,6817.0,6148.0,7829.0,2549.0,703.0,5420.0,6516.0,6476.0,7871.0
50,HIGH ST,40.6993673,-73.99126559999998,328.0,392.0,2819.0,5078.0,5260.0,2003.0,340.0,275.0,2669.0,4686.0,4488.0,1366.0,108.0,1735.0,6793.0,4336.0,7117.0,1446.0,57.0,1830.0,6836.0,4356.0,7275.0,1538.0,16.0,1790.0,6725.0,4700.0,7671.0,1415.0,23.0,1672.0,6270.0,3536.0,6414.0,1350.0,3.0,1566.0,5872.0,4323.0,7025.0
51,BROOKLYN BRIDGE,40.6993673,-73.99126559999998,446.0,601.0,2770.0,4947.0,4713.0,1682.0,359.0,356.0,2096.0,4042.0,3605.0,1136.0,158.0,3240.0,10829.0,8664.0,11226.0,2205.0,278.0,3368.0,11690.0,8762.0,11656.0,2534.0,343.0,3552.0,11446.0,9319.0,12046.0,2470.0,341.0,3403.0,10238.0,7972.0,10355.0,2311.0,292.0,2842.0,9848.0,8301.0,10391.0
52,103 ST-CORONA,40.7498268,-73.862746,1419.0,3015.0,4458.0,4384.0,4835.0,2839.0,1191.0,1192.0,2971.0,3490.0,3196.0,2482.0,771.0,8023.0,6926.0,6149.0,8915.0,3729.0,1020.0,8429.0,6851.0,5982.0,8795.0,3917.0,1083.0,8220.0,7017.0,5934.0,9203.0,3970.0,1154.0,7888.0,6775.0,5899.0,9088.0,3790.0,1197.0,7906.0,7236.0,6609.0,9895.0
53,GRAND-NEWTOWN,40.736835,-73.87758840000001,737.0,2055.0,5343.0,5321.0,5091.0,2906.0,726.0,1255.0,3974.0,4485.0,4118.0,2214.0,425.0,6015.0,8168.0,5399.0,7484.0,2741.0,418.0,6185.0,8338.0,5496.0,7371.0,2827.0,505.0,5983.0,8342.0,5294.0,7291.0,2926.0,462.0,5965.0,8088.0,5268.0,7121.0,2732.0,511.0,5696.0,7977.0,5465.0,7234.0
54,181 ST,40.84913,-73.93372889999998,940.0,1332.0,3720.0,4609.0,4863.0,2979.0,902.0,914.0,2608.0,4091.0,4026.0,2289.0,541.0,3150.0,5196.0,5324.0,7122.0,3041.0,844.0,3236.0,5240.0,5240.0,7263.0,3232.0,839.0,3253.0,5335.0,5524.0,6980.0,3329.0,925.0,3181.0,4971.0,5174.0,6778.0,3131.0,879.0,3040.0,5157.0,5607.0,6813.0
55,167 ST,40.835598,-73.9213791,1002.0,2316.0,4362.0,5028.0,4784.0,2824.0,969.0,1608.0,2904.0,3882.0,3880.0,2334.0,699.0,5899.0,6946.0,5809.0,7768.0,3182.0,811.0,5986.0,7084.0,6354.0,7859.0,3379.0,820.0,6062.0,7106.0,6421.0,7798.0,3368.0,893.0,5774.0,6102.0,5344.0,7624.0,3058.0,821.0,5643.0,6960.0,6408.0,7748.0
56,82 ST-JACKSON H,40.7477145,-73.8839373,982.0,1009.0,3454.0,5067.0,5224.0,2735.0,820.0,635.0,2011.0,3624.0,3888.0,2246.0,541.0,3908.0,6822.0,7947.0,10272.0,3583.0,730.0,3968.0,6449.0,7669.0,10373.0,3792.0,829.0,3876.0,6754.0,7806.0,10119.0,4046.0,785.0,3714.0,6694.0,7406.0,9885.0,3700.0,824.0,3637.0,6669.0,6712.0,9269.0
57,KINGS HWY,40.60867440000001,-73.9578059,576.0,1380.0,4049.0,4695.0,5049.0,2429.0,635.0,956.0,3714.0,4532.0,4264.0,1869.0,323.0,6147.0,9692.0,7279.0,11572.0,3544.0,452.0,6316.0,9765.0,7492.0,11795.0,3734.0,423.0,6303.0,9929.0,7584.0,11596.0,3503.0,431.0,5725.0,8418.0,6670.0,10441.0,3334.0,426.0,5805.0,8861.0,7247.0,10525.0
58,3 AV-149 ST,40.816129,-73.917811,669.0,1914.0,4342.0,5243.0,4409.0,2336.0,614.0,1286.0,2957.0,3879.0,3427.0,1702.0,442.0,5496.0,8100.0,7793.0,8223.0,2619.0,528.0,5658.0,8163.0,8067.0,8758.0,2708.0,557.0,5693.0,8150.0,8290.0,8757.0,2698.0,536.0,5064.0,7962.0,7823.0,8216.0,2515.0,549.0,5259.0,8124.0,8511.0,8206.0
59,EAST BROADWAY,40.714402899999996,-73.98991880000001,531.0,821.0,3205.0,4031.0,4373.0,2523.0,589.0,672.0,3084.0,3597.0,3617.0,1823.0,299.0,2269.0,5363.0,4528.0,6554.0,2386.0,312.0,2411.0,5381.0,4880.0,6668.0,2537.0,339.0,2340.0,5438.0,4828.0,6600.0,2612.0,380.0,2309.0,5514.0,4658.0,6431.0,2753.0,437.0,2491.0,6141.0,5366.0,7173.0
60,72 ST,40.778453000000006,-73.98196999999998,218.0,165.0,1722.0,3865.0,3856.0,1241.0,217.0,306.0,3167.0,3652.0,3136.0,754.0,59.0,852.0,3894.0,3522.0,4929.0,1046.0,76.0,1009.0,3867.0,3415.0,,1264.0,,956.0,4075.0,3887.0,5426.0,1208.0,106.0,916.0,3885.0,3424.0,4762.0,1193.0,96.0,927.0,3742.0,3935.0,4887.0
61,WALL ST,40.706396500000004,-74.0094441,572.0,531.0,3074.0,5979.0,5991.0,2660.0,484.0,388.0,2434.0,3526.0,3377.0,1532.0,141.0,4745.0,16398.0,6916.0,17933.0,2790.0,334.0,4905.0,16879.0,7308.0,18713.0,3324.0,336.0,4774.0,16700.0,7520.0,18772.0,3433.0,344.0,4582.0,16616.0,7313.0,18360.0,3399.0,413.0,3810.0,14991.0,7873.0,15385.0
62,21 ST-QNSBRIDGE,40.75417770000001,-73.94247419999998,517.0,982.0,3456.0,3470.0,3234.0,2120.0,581.0,693.0,2735.0,2686.0,2566.0,1528.0,305.0,2568.0,5014.0,3468.0,4863.0,2372.0,483.0,2684.0,4999.0,3730.0,4914.0,2145.0,535.0,2742.0,5115.0,3839.0,5028.0,2428.0,553.0,2547.0,4941.0,3976.0,4913.0,2394.0,474.0,2496.0,5188.0,3885.0,4870.0
63,HOYT-SCHER,40.688828799999996,-73.98531249999998,570.0,523.0,2649.0,4816.0,4961.0,2316.0,542.0,445.0,2486.0,4308.0,4002.0,1532.0,221.0,1576.0,5256.0,4822.0,6591.0,2052.0,217.0,1555.0,5375.0,4790.0,6754.0,2175.0,227.0,1623.0,5476.0,4919.0,6595.0,2351.0,285.0,1578.0,5269.0,4639.0,6439.0,2215.0,248.0,1504.0,5218.0,5171.0,6633.0
64,FRANKLIN AV,40.7190056,-74.0066801,704.0,735.0,3364.0,4625.0,4313.0,2271.0,670.0,576.0,2456.0,3622.0,3174.0,1537.0,261.0,2641.0,6812.0,3506.0,6099.0,2650.0,331.0,2867.0,7077.0,3730.0,6177.0,2865.0,363.0,2833.0,7148.0,3622.0,6238.0,2964.0,393.0,2748.0,6907.0,3584.0,5934.0,2935.0,411.0,2539.0,6459.0,3774.0,5576.0
65,168 ST,40.841041,-73.939971,486.0,1452.0,3564.0,4525.0,4213.0,2165.0,449.0,1114.0,2676.0,3533.0,3151.0,1631.0,299.0,4205.0,8469.0,6144.0,9061.0,1984.0,322.0,4612.0,8843.0,6612.0,4035.0,1138.0,322.0,4609.0,8777.0,6354.0,9438.0,2287.0,339.0,4288.0,8400.0,6225.0,9824.0,2104.0,330.0,4112.0,8483.0,6484.0,8866.0
66,NEVINS ST,40.6882963,-73.98052059999999,358.0,597.0,2382.0,3681.0,4027.0,1726.0,426.0,436.0,1800.0,2620.0,2323.0,1044.0,194.0,2268.0,5563.0,4713.0,6328.0,1249.0,233.0,2301.0,5472.0,4678.0,6417.0,2024.0,284.0,2375.0,5701.0,4897.0,6551.0,2215.0,343.0,2206.0,5405.0,4506.0,6029.0,1943.0,257.0,2140.0,5184.0,4879.0,6214.0
67,5 AVE,40.760216299999996,-73.975543,417.0,146.0,824.0,4259.0,4075.0,1402.0,211.0,333.0,2627.0,2752.0,2681.0,899.0,87.0,1713.0,6916.0,4340.0,9114.0,2038.0,259.0,1851.0,7073.0,4551.0,9482.0,2239.0,291.0,1749.0,7031.0,4405.0,9318.0,2205.0,332.0,1842.0,7523.0,4796.0,9650.0,1987.0,306.0,1631.0,6843.0,4909.0,8493.0
68,PROSPECT PARK,40.66087879999999,-73.9621109,726.0,702.0,2585.0,3836.0,3702.0,1955.0,665.0,4105.0,3851.0,3107.0,3006.0,1460.0,295.0,2381.0,4889.0,3239.0,5674.0,2243.0,367.0,2450.0,4994.0,3454.0,5857.0,2528.0,359.0,2411.0,5319.0,3655.0,5877.0,2576.0,440.0,2367.0,4826.0,3172.0,5291.0,2428.0,382.0,2178.0,4962.0,3444.0,5327.0
69,CENTRAL PK N110,40.798737599999995,-73.9522934,514.0,794.0,2373.0,3202.0,2982.0,1868.0,499.0,599.0,1914.0,2826.0,2532.0,1412.0,309.0,2272.0,4050.0,3156.0,4205.0,1761.0,355.0,2392.0,4108.0,3272.0,4546.0,1858.0,360.0,2369.0,4248.0,3547.0,4506.0,2022.0,355.0,2321.0,4159.0,3231.0,4337.0,1733.0,382.0,2201.0,4165.0,3564.0,4436.0
70,LEXINGTON AV/53,40.757698100000006,-73.96907420000001,1331.0,1498.0,6248.0,9535.0,9368.0,4659.0,1081.0,885.0,4734.0,6434.0,5805.0,3165.0,411.0,8628.0,29150.0,13887.0,30791.0,5678.0,576.0,9076.0,30670.0,15013.0,32174.0,6083.0,515.0,8877.0,30063.0,15236.0,32638.0,6153.0,431.0,8906.0,30570.0,15606.0,33163.0,6448.0,541.0,8028.0,27998.0,15769.0,29237.0
71,63 DR-REGO PARK,40.7301359,-73.86236729999999,275.0,927.0,3125.0,3962.0,3491.0,1528.0,260.0,634.0,2308.0,3418.0,2955.0,1105.0,154.0,3910.0,6469.0,4197.0,5443.0,1630.0,170.0,4012.0,6723.0,4233.0,5468.0,1646.0,168.0,3926.0,6771.0,4277.0,5681.0,1705.0,198.0,3815.0,6284.0,3923.0,5266.0,1512.0,178.0,3554.0,6148.0,4249.0,5455.0
72,3 AV,40.733135299999994,-73.98675829999998,18.0,40.0,31.0,55.0,44.0,33.0,16.0,10.0,11.0,22.0,22.0,20.0,12.0,932.0,2615.0,2317.0,3863.0,1596.0,120.0,1026.0,2899.0,2448.0,4076.0,2063.0,167.0,948.0,3175.0,2434.0,4109.0,2059.0,187.0,944.0,2793.0,2420.0,4199.0,2016.0,243.0,889.0,2839.0,2622.0,4561.0
73,175 ST,40.847916600000005,-73.9394823,422.0,1031.0,3042.0,3828.0,3500.0,1901.0,412.0,651.0,2214.0,2905.0,2806.0,1449.0,274.0,3239.0,5534.0,3533.0,5370.0,1681.0,207.0,3298.0,5738.0,3517.0,818.0,317.0,287.0,3285.0,5553.0,3515.0,5730.0,1791.0,232.0,3259.0,5472.0,3505.0,5429.0,1724.0,250.0,3006.0,5333.0,3919.0,5736.0
74,53 ST,40.760216299999996,-73.975543,582.0,1142.0,2326.0,2726.0,3234.0,1711.0,505.0,696.0,2125.0,2625.0,2584.0,1698.0,365.0,3103.0,4285.0,3700.0,5648.0,2214.0,382.0,3214.0,4423.0,3735.0,5161.0,2181.0,381.0,3207.0,4274.0,3805.0,5646.0,2028.0,512.0,3072.0,4245.0,3760.0,5251.0,2082.0,446.0,3037.0,4376.0,3918.0,5218.0
75,110 ST,40.798737599999995,-73.9522934,586.0,941.0,2808.0,3513.0,3327.0,1991.0,634.0,665.0,1996.0,2757.0,2546.0,1491.0,343.0,3089.0,5077.0,4345.0,5741.0,2049.0,384.0,3258.0,5288.0,4367.0,5731.0,2294.0,364.0,3245.0,5420.0,4727.0,5856.0,2230.0,419.0,3113.0,5223.0,4483.0,5968.0,2165.0,414.0,2984.0,5085.0,4839.0,5722.0
76,BEDFORD-NOSTRAN,40.6898534,-73.9516398,416.0,419.0,1735.0,2357.0,2285.0,1286.0,373.0,328.0,1513.0,2101.0,1838.0,995.0,175.0,1856.0,4370.0,2143.0,3377.0,1682.0,348.0,2035.0,4526.0,2184.0,3407.0,1828.0,375.0,1992.0,4645.0,2167.0,3628.0,1840.0,373.0,1930.0,4521.0,2251.0,3391.0,1698.0,390.0,1806.0,4406.0,2492.0,3360.0
77,GRAHAM AV,40.714526299999996,-73.94438180000002,12.0,0.0,0.0,0.0,0.0,0.0,0.0,0.0,4.0,0.0,0.0,0.0,0.0,1660.0,5084.0,2589.0,4363.0,1710.0,162.0,1822.0,5238.0,2668.0,4475.0,2018.0,205.0,1742.0,5312.0,2677.0,4397.0,2052.0,228.0,1694.0,5203.0,2685.0,4271.0,2010.0,226.0,1569.0,5092.0,3023.0,4675.0
78,46 ST BLISS ST,40.7430691,-73.91824030000002,724.0,1114.0,2867.0,3063.0,3298.0,1801.0,534.0,649.0,1766.0,2346.0,2276.0,1526.0,333.0,3581.0,5470.0,4153.0,6053.0,2515.0,443.0,3741.0,5690.0,3983.0,6155.0,2771.0,548.0,3670.0,5774.0,4217.0,6238.0,2810.0,472.0,3492.0,5719.0,4182.0,6174.0,2727.0,533.0,3440.0,5580.0,4476.0,6017.0
79,CHRISTOPHER ST,40.733578400000006,-74.00287279999998,980.0,234.0,1140.0,2223.0,3094.0,2328.0,793.0,180.0,825.0,1777.0,2143.0,1394.0,289.0,873.0,3574.0,3146.0,5439.0,2650.0,367.0,929.0,3921.0,3302.0,5789.0,3094.0,502.0,1023.0,3783.0,3361.0,6063.0,3414.0,534.0,934.0,3840.0,3277.0,6025.0,3758.0,586.0,836.0,3935.0,3790.0,6572.0
80,191 ST,40.855738,-73.9306512,690.0,902.0,2294.0,2909.0,2987.0,2084.0,638.0,619.0,1630.0,2414.0,2559.0,1576.0,365.0,2589.0,3619.0,3261.0,4798.0,2030.0,512.0,2647.0,3657.0,3296.0,5007.0,2387.0,526.0,2699.0,3679.0,3418.0,4849.0,2351.0,519.0,2539.0,3542.0,3347.0,4840.0,2304.0,541.0,2515.0,3441.0,3511.0,4407.0
81,ROOSEVELT ISLND,40.7591362,-73.9533215,307.0,344.0,2081.0,2908.0,2942.0,1560.0,337.0,263.0,1619.0,2610.0,2239.0,1061.0,129.0,1525.0,3833.0,2504.0,3853.0,1511.0,177.0,1601.0,3873.0,2590.0,4044.0,1761.0,139.0,1617.0,3940.0,2741.0,4273.0,1809.0,149.0,1550.0,3908.0,2583.0,3949.0,1589.0,148.0,1473.0,3830.0,2758.0,3988.0
82,BROADWAY JCT,40.6789137,-73.9039,1150.0,1980.0,3502.0,4387.0,4457.0,3019.0,1151.0,1445.0,2685.0,3393.0,3500.0,2465.0,604.0,2920.0,3689.0,3178.0,4206.0,1766.0,527.0,2870.0,3553.0,3231.0,4485.0,2160.0,546.0,2899.0,3603.0,3448.0,4434.0,1800.0,598.0,2869.0,3430.0,3146.0,3952.0,1682.0,502.0,2628.0,3510.0,3468.0,4145.0
83,HOYT ST,40.688828799999996,-73.98531249999998,177.0,251.0,1486.0,2739.0,2900.0,1190.0,192.0,231.0,1672.0,2557.0,1901.0,697.0,78.0,1109.0,3780.0,3197.0,4724.0,1322.0,111.0,1201.0,3920.0,3387.0,4992.0,1491.0,133.0,1187.0,3902.0,3345.0,4999.0,1452.0,122.0,1091.0,3822.0,3351.0,4874.0,1545.0,146.0,1071.0,3651.0,3627.0,4886.0
84,135 ST,40.817894,-73.947647,570.0,922.0,2899.0,3372.0,3138.0,1862.0,528.0,707.0,2251.0,2984.0,2401.0,1328.0,301.0,2825.0,5134.0,3765.0,5032.0,1918.0,331.0,2932.0,5469.0,3816.0,5109.0,1999.0,395.0,3002.0,5465.0,4097.0,5016.0,2099.0,400.0,2826.0,5200.0,3914.0,4880.0,1964.0,403.0,2572.0,5214.0,4018.0,4931.0
85,ELMHURST AV,40.74244789999999,-73.88198440000001,300.0,1339.0,3456.0,3404.0,2802.0,1354.0,308.0,933.0,2962.0,2961.0,2358.0,1006.0,157.0,3701.0,5170.0,2909.0,3135.0,1061.0,175.0,3798.0,5269.0,2947.0,3236.0,1003.0,216.0,3854.0,5403.0,2936.0,3305.0,1157.0,219.0,3624.0,5250.0,2817.0,3144.0,1008.0,248.0,3519.0,5165.0,2925.0,3359.0
86,RECTOR ST,40.7078954,-74.01363649999998,341.0,369.0,2293.0,3041.0,3008.0,1315.0,246.0,351.0,1729.0,2539.0,2170.0,804.0,104.0,1738.0,7079.0,4627.0,7791.0,1555.0,187.0,1808.0,7186.0,4791.0,8298.0,1643.0,183.0,1857.0,7143.0,5068.0,8326.0,1677.0,220.0,1741.0,7045.0,4742.0,8133.0,1983.0,253.0,1570.0,6586.0,4854.0,7560.0
87,4AV-9 ST,40.6701803,-73.98929150000002,401.0,407.0,1998.0,2662.0,2577.0,1303.0,342.0,260.0,1452.0,2200.0,1924.0,897.0,123.0,1994.0,4697.0,2872.0,4330.0,1536.0,145.0,1966.0,4976.0,2898.0,4697.0,1507.0,165.0,2111.0,4930.0,2834.0,4529.0,1476.0,186.0,1908.0,4932.0,2797.0,4450.0,1454.0,188.0,1829.0,4548.0,3046.0,4322.0
88,96 ST,40.7858701,-73.95093469999998,182.0,272.0,1413.0,2498.0,2599.0,1192.0,232.0,261.0,1381.0,2515.0,2269.0,741.0,125.0,1593.0,4485.0,3572.0,5846.0,1269.0,95.0,1746.0,4652.0,3478.0,5892.0,1447.0,104.0,1742.0,4698.0,3665.0,5964.0,1350.0,122.0,1703.0,4536.0,3682.0,5572.0,1359.0,111.0,1632.0,4393.0,3816.0,5267.0
89,JAMAICA 179 ST,40.71264420000001,-73.7838184,482.0,1903.0,3286.0,3262.0,3104.0,1701.0,609.0,1354.0,2051.0,2301.0,2182.0,1363.0,462.0,9918.0,7628.0,4383.0,6472.0,2191.0,571.0,10302.0,7752.0,4480.0,6634.0,2530.0,587.0,10183.0,8066.0,4576.0,6830.0,2432.0,624.0,9771.0,7762.0,4416.0,6606.0,2185.0,572.0,9032.0,7517.0,4604.0,6189.0
90,BRIGHTON BEACH,40.5776648,-73.96127690000002,270.0,904.0,2569.0,3078.0,2870.0,1245.0,252.0,629.0,2091.0,2675.0,2623.0,940.0,137.0,3306.0,4881.0,5002.0,5436.0,1794.0,224.0,3249.0,5078.0,5327.0,5520.0,1076.0,151.0,3267.0,5189.0,5186.0,5906.0,1896.0,186.0,3046.0,4831.0,4580.0,5105.0,1642.0,219.0,2952.0,4287.0,4009.0,4664.0
91,CARROLL ST,40.679331299999994,-73.9954833,307.0,316.0,2007.0,2907.0,3031.0,1673.0,316.0,265.0,1530.0,2581.0,2031.0,897.0,91.0,1973.0,5800.0,2807.0,4580.0,1324.0,125.0,2059.0,5887.0,2941.0,4886.0,1559.0,119.0,2036.0,5914.0,3195.0,4783.0,1505.0,120.0,1935.0,6075.0,3067.0,4669.0,1420.0,156.0,1795.0,5595.0,3109.0,4606.0
92,149/GRAND CONC,40.8183248,-73.9274121,704.0,1077.0,2575.0,3262.0,2728.0,1713.0,648.0,830.0,1644.0,2143.0,2135.0,1298.0,396.0,2902.0,5160.0,5471.0,5871.0,2316.0,660.0,3041.0,5268.0,5515.0,5834.0,2215.0,599.0,2976.0,5419.0,5916.0,6149.0,2405.0,676.0,2825.0,4988.0,5585.0,5426.0,2050.0,591.0,2617.0,4680.0,5077.0,5056.0
93,UNION ST,40.6771729,-73.98324670000001,289.0,166.0,563.0,1013.0,1277.0,1018.0,257.0,150.0,485.0,871.0,955.0,484.0,111.0,1350.0,3553.0,2059.0,4111.0,1471.0,133.0,1447.0,3849.0,2086.0,4197.0,1561.0,139.0,1398.0,3889.0,2122.0,4359.0,1716.0,231.0,1438.0,3916.0,2169.0,4301.0,1820.0,208.0,1283.0,3671.0,2169.0,3694.0
94,111 ST,40.75172999999999,-73.855334,822.0,2077.0,2986.0,2536.0,2619.0,1743.0,638.0,1025.0,2174.0,2151.0,1895.0,1586.0,526.0,4792.0,3995.0,3208.0,4659.0,,,4996.0,3798.0,3107.0,4907.0,2268.0,657.0,4978.0,3879.0,3139.0,4960.0,2128.0,709.0,4633.0,3972.0,3189.0,4825.0,2267.0,703.0,4635.0,4048.0,3277.0,4516.0
95,MONTROSE AV,40.7077716,-73.93986329999998,2.0,3.0,1.0,4.0,3.0,5.0,1.0,3.0,0.0,1.0,0.0,7.0,2.0,1139.0,3028.0,,,1285.0,181.0,1274.0,3101.0,1962.0,2858.0,1322.0,202.0,1263.0,3235.0,2014.0,2891.0,1572.0,213.0,1175.0,3133.0,1823.0,2699.0,1295.0,180.0,1195.0,3050.0,2242.0,2865.0
96,MORGAN AV,40.70607589999999,-73.93370999999998,37.0,35.0,57.0,22.0,22.0,24.0,4.0,4.0,8.0,28.0,8.0,21.0,17.0,1266.0,2905.0,1992.0,2996.0,1244.0,170.0,1429.0,2981.0,2062.0,3078.0,1511.0,228.0,1412.0,3081.0,2245.0,3192.0,1391.0,243.0,1338.0,2943.0,2030.0,2978.0,1352.0,222.0,1270.0,2848.0,2213.0,3250.0
97,90 ST-ELMHURST,40.748436700000006,-73.87652890000001,641.0,1884.0,3303.0,3049.0,2509.0,1290.0,499.0,787.0,2055.0,2163.0,1902.0,1240.0,386.0,5518.0,5771.0,4488.0,5634.0,2353.0,512.0,5645.0,5652.0,4574.0,5801.0,2401.0,574.0,5669.0,5620.0,4521.0,5736.0,2410.0,583.0,5395.0,5617.0,4325.0,5565.0,2304.0,597.0,5259.0,5709.0,4498.0,5550.0
98,6 AV,40.7373653,-73.99684529999998,190.0,161.0,588.0,1123.0,1248.0,755.0,162.0,110.0,347.0,691.0,921.0,446.0,57.0,547.0,1832.0,1359.0,2602.0,912.0,107.0,584.0,1891.0,1476.0,2737.0,1137.0,146.0,585.0,1951.0,1575.0,2840.0,1184.0,144.0,531.0,1878.0,1532.0,2737.0,1223.0,127.0,552.0,1905.0,1615.0,2798.0
99,BOWERY,40.720166799999994,-73.99353470000001,505.0,234.0,1526.0,2281.0,2533.0,1432.0,504.0,211.0,1267.0,1998.0,1864.0,917.0,155.0,469.0,1667.0,1670.0,2210.0,974.0,167.0,459.0,1768.0,1570.0,2234.0,1152.0,242.0,439.0,1660.0,1653.0,2405.0,1076.0,246.0,413.0,1580.0,1613.0,2315.0,1202.0,285.0,439.0,1768.0,1715.0,2611.0
100,BURNSIDE AV,40.85345299999999,-73.90768400000002,448.0,1190.0,2494.0,3072.0,2989.0,1699.0,729.0,768.0,1561.0,2267.0,2311.0,1343.0,306.0,2707.0,3567.0,3559.0,3991.0,1727.0,365.0,2941.0,3811.0,4087.0,3914.0,1844.0,366.0,2899.0,3844.0,4425.0,4121.0,1819.0,425.0,2691.0,3475.0,3533.0,3931.0,1618.0,401.0,2598.0,3319.0,3415.0,3549.0
101,45 ST,40.6493588,-74.00959069999998,324.0,787.0,1975.0,2357.0,2187.0,1136.0,271.0,502.0,1589.0,1969.0,1669.0,874.0,177.0,2401.0,3128.0,2129.0,3387.0,1106.0,192.0,2495.0,3204.0,2269.0,3397.0,1197.0,244.0,2467.0,3201.0,2237.0,3438.0,1176.0,291.0,2328.0,3287.0,2165.0,3222.0,1175.0,257.0,2265.0,3058.0,2424.0,3131.0
102,170 ST,40.840050399999996,-73.9133477,473.0,959.0,1575.0,2169.0,2030.0,1294.0,442.0,681.0,1228.0,1618.0,1665.0,1048.0,336.0,2547.0,3172.0,2897.0,3653.0,1511.0,392.0,2679.0,3202.0,2824.0,3736.0,1559.0,386.0,2745.0,3279.0,2801.0,3833.0,1585.0,440.0,2578.0,3114.0,2877.0,3707.0,1490.0,399.0,2420.0,3047.0,2962.0,3550.0
103,169 ST,40.7104152,-73.79374600000001,377.0,916.0,1862.0,2121.0,2278.0,1368.0,413.0,620.0,1282.0,1764.0,1654.0,1030.0,268.0,2732.0,3516.0,3147.0,4784.0,1608.0,293.0,2722.0,3554.0,3297.0,4573.0,1784.0,298.0,2735.0,3633.0,3310.0,4789.0,1717.0,340.0,2674.0,3393.0,3193.0,4676.0,1577.0,327.0,2480.0,,,
104,74 ST-BROADWAY,40.746941899999996,-73.89146020000001,314.0,251.0,1004.0,1569.0,1653.0,1097.0,224.0,184.0,713.0,1136.0,1465.0,935.0,148.0,634.0,1367.0,1830.0,2711.0,1181.0,205.0,648.0,1388.0,1749.0,2414.0,1193.0,191.0,660.0,,,2442.0,1258.0,212.0,645.0,1227.0,1562.0,2385.0,1055.0,210.0,622.0,1337.0,1757.0,2658.0
105,40 ST LOWERY ST,40.7438729,-73.92423409999998,558.0,563.0,1939.0,2326.0,2317.0,1524.0,406.0,349.0,1342.0,1648.0,1779.0,1188.0,234.0,3034.0,5184.0,3602.0,5620.0,2103.0,278.0,3123.0,5217.0,3543.0,5646.0,2247.0,323.0,3143.0,5270.0,3702.0,5545.0,2285.0,300.0,2992.0,5154.0,3697.0,5953.0,2393.0,337.0,2998.0,5614.0,3870.0,5127.0
106,CASTLE HILL AV,40.83429599999999,-73.85168399999998,446.0,862.0,1589.0,2038.0,2132.0,1260.0,467.0,621.0,1182.0,1477.0,1619.0,969.0,322.0,2753.0,2518.0,2545.0,3811.0,1515.0,369.0,2897.0,2586.0,2578.0,4085.0,1545.0,405.0,2928.0,2638.0,2778.0,4092.0,1603.0,461.0,2852.0,2577.0,2729.0,3626.0,1534.0,400.0,2664.0,2560.0,2882.0,3770.0
107,HALSEY ST,40.69577750000001,-73.9044092,11.0,12.0,25.0,24.0,34.0,23.0,24.0,5.0,12.0,20.0,19.0,8.0,10.0,2403.0,3034.0,2013.0,3188.0,1369.0,192.0,2472.0,3202.0,2119.0,3323.0,1449.0,252.0,2561.0,3341.0,2198.0,3510.0,1588.0,273.0,2524.0,3221.0,2016.0,3509.0,1387.0,295.0,2408.0,3203.0,2330.0,3292.0
108,CLARK ST,40.6974878,-73.99314090000001,163.0,167.0,1124.0,1903.0,1896.0,954.0,173.0,94.0,944.0,1655.0,1497.0,578.0,69.0,703.0,2503.0,1596.0,2519.0,898.0,87.0,701.0,2521.0,1702.0,2426.0,1101.0,92.0,702.0,2598.0,1727.0,2713.0,1102.0,92.0,696.0,2568.0,1550.0,2383.0,1023.0,84.0,610.0,2233.0,1690.0,2394.0
109,SUTTER AV-RUTLD,40.664992100000006,-73.92290849999998,475.0,700.0,1608.0,2047.0,2061.0,1325.0,429.0,495.0,1154.0,1569.0,1514.0,1012.0,321.0,2717.0,3104.0,3021.0,4261.0,1462.0,342.0,2873.0,3060.0,2857.0,4330.0,1601.0,370.0,2883.0,2965.0,2901.0,4317.0,1639.0,368.0,2782.0,2898.0,2714.0,4101.0,1553.0,359.0,2573.0,3089.0,3130.0,4200.0
110,EASTN PKWY-MUSM,40.671993799999996,-73.96420649999999,176.0,127.0,903.0,1800.0,1489.0,629.0,187.0,107.0,633.0,1359.0,1139.0,392.0,70.0,666.0,2389.0,1692.0,2203.0,825.0,88.0,719.0,2537.0,1958.0,2333.0,948.0,84.0,746.0,2643.0,2184.0,2434.0,954.0,109.0,742.0,2487.0,2196.0,2656.0,1228.0,100.0,684.0,2572.0,2231.0,2306.0
111,BAY RIDGE AV,40.634968,-74.023376,353.0,645.0,1957.0,2455.0,2394.0,1242.0,277.0,466.0,1423.0,1769.0,1566.0,971.0,206.0,2450.0,3502.0,2429.0,3300.0,1116.0,302.0,2671.0,3502.0,2437.0,3327.0,1278.0,223.0,2591.0,3503.0,2477.0,3327.0,1293.0,272.0,2524.0,3447.0,2255.0,3126.0,1273.0,201.0,2364.0,3396.0,2458.0,3136.0
112,OZONE PK LEFFRT,40.685956700000006,-73.8257601,324.0,1186.0,1645.0,1824.0,1955.0,1046.0,330.0,740.0,1113.0,1412.0,1389.0,824.0,266.0,3958.0,2660.0,2111.0,3920.0,1210.0,341.0,4058.0,2587.0,1995.0,3677.0,1326.0,362.0,4087.0,2609.0,2095.0,3838.0,1464.0,344.0,3774.0,2580.0,2128.0,3691.0,1143.0,371.0,3559.0,2529.0,2202.0,3522.0
113,JEFFERSON ST,40.7065868,-73.922872,18.0,20.0,1.0,3.0,2.0,1.0,5.0,3.0,2.0,5.0,2.0,2.0,4.0,1287.0,2531.0,1641.0,2326.0,799.0,149.0,1339.0,2707.0,1685.0,2318.0,976.0,185.0,1394.0,2725.0,1662.0,2412.0,1122.0,257.0,1322.0,2605.0,1605.0,2324.0,1046.0,355.0,1231.0,2663.0,1716.0,2390.0
114,MORISN AV/SNDVW,40.8294898,-73.8746754,528.0,1042.0,1675.0,1849.0,1833.0,1287.0,491.0,655.0,1115.0,1470.0,1379.0,1074.0,352.0,2548.0,2165.0,2011.0,2894.0,1392.0,374.0,2773.0,2375.0,2031.0,2986.0,1424.0,388.0,2817.0,2403.0,2208.0,2909.0,1534.0,445.0,2662.0,2379.0,2215.0,2751.0,1400.0,,,2430.0,2291.0,2828.0
115,207 ST,40.8676635,-73.9212009,262.0,595.0,1557.0,1893.0,1799.0,1016.0,272.0,415.0,1077.0,1643.0,1472.0,778.0,,,2193.0,2051.0,2352.0,905.0,205.0,1714.0,2169.0,1934.0,2439.0,1123.0,193.0,1684.0,2296.0,2125.0,2439.0,1120.0,204.0,1552.0,2084.0,1935.0,2287.0,929.0,216.0,1592.0,2122.0,2129.0,2409.0
116,EUCLID AV,40.6754013,-73.8719033,299.0,1138.0,2158.0,2113.0,1778.0,1029.0,278.0,778.0,1590.0,1733.0,1455.0,859.0,243.0,3508.0,3748.0,2653.0,2657.0,1067.0,246.0,3749.0,3867.0,2687.0,2627.0,1120.0,251.0,3773.0,3976.0,2692.0,2696.0,1066.0,287.0,3469.0,3523.0,2548.0,2626.0,1023.0,224.0,3281.0,3558.0,2760.0,2731.0
117,GRAND ARMY PLAZ,40.6752403,-73.97104159999998,111.0,93.0,761.0,1323.0,1315.0,588.0,106.0,160.0,671.0,1063.0,989.0,351.0,44.0,1003.0,3514.0,1754.0,2708.0,830.0,38.0,1081.0,3508.0,1800.0,2819.0,843.0,57.0,1075.0,3484.0,1775.0,2842.0,952.0,53.0,1088.0,3577.0,1712.0,2619.0,878.0,63.0,941.0,3233.0,1874.0,2510.0
118,PARSONS BLVD,40.707714,-73.8028238,373.0,962.0,1676.0,1657.0,1685.0,1133.0,418.0,683.0,1146.0,1437.0,1440.0,988.0,291.0,2568.0,3085.0,2859.0,3948.0,1437.0,367.0,2784.0,3106.0,3160.0,4175.0,1649.0,407.0,2792.0,3003.0,3008.0,4123.0,1488.0,447.0,2660.0,2973.0,2728.0,3737.0,1427.0,451.0,2624.0,3021.0,2855.0,3566.0
119,231 ST,40.87899229999999,-73.904939,176.0,690.0,1612.0,2021.0,1744.0,782.0,158.0,427.0,1241.0,1717.0,1373.0,585.0,95.0,2640.0,3173.0,2228.0,2392.0,809.0,110.0,2777.0,3208.0,2240.0,2650.0,925.0,138.0,2768.0,3336.0,2290.0,2619.0,868.0,124.0,2692.0,3165.0,2145.0,2289.0,836.0,138.0,2480.0,3191.0,2335.0,2498.0
120,SMITH-9 ST,40.6746048,-73.99703970000002,256.0,491.0,1397.0,1849.0,1710.0,943.0,245.0,232.0,841.0,1434.0,1344.0,652.0,121.0,1484.0,2629.0,2026.0,3128.0,857.0,138.0,1583.0,2760.0,2056.0,3124.0,937.0,124.0,1568.0,2720.0,1612.0,,,145.0,1547.0,2622.0,2167.0,2992.0,976.0,162.0,1437.0,2580.0,2316.0,2848.0
121,4 AV-9 ST,40.6701803,-73.98929150000002,256.0,241.0,1260.0,1771.0,1938.0,1016.0,323.0,226.0,900.0,1423.0,1517.0,592.0,129.0,923.0,1799.0,1445.0,3222.0,980.0,119.0,949.0,1851.0,1446.0,3189.0,1110.0,139.0,919.0,1921.0,1500.0,3095.0,1115.0,124.0,910.0,1847.0,1334.0,2912.0,1064.0,168.0,835.0,1820.0,1378.0,2876.0
122,67 AV,40.7263823,-73.8515929,152.0,564.0,1818.0,1897.0,1645.0,898.0,202.0,363.0,1528.0,1610.0,1248.0,649.0,123.0,2760.0,4278.0,2220.0,3688.0,1019.0,108.0,2802.0,4455.0,2241.0,3736.0,1128.0,123.0,2838.0,4401.0,2260.0,3725.0,1172.0,139.0,2753.0,4340.0,2212.0,3711.0,1101.0,135.0,2547.0,4130.0,2331.0,3341.0
123,ROCKAWAY AV,40.6625632,-73.9089054,344.0,642.0,1305.0,1616.0,1807.0,1252.0,336.0,408.0,859.0,1250.0,1255.0,863.0,275.0,1922.0,2422.0,2360.0,3030.0,1119.0,275.0,1929.0,2429.0,2377.0,3107.0,1159.0,299.0,1957.0,2348.0,2415.0,3144.0,1207.0,291.0,1849.0,2254.0,2286.0,2886.0,1142.0,290.0,1738.0,2396.0,2542.0,2889.0
124,PELHAM BAY PARK,40.852930799999996,-73.8270555,269.0,677.0,1387.0,1693.0,1587.0,976.0,252.0,408.0,1004.0,1409.0,1246.0,685.0,202.0,3060.0,2519.0,1941.0,2418.0,77.0,24.0,3239.0,2569.0,1905.0,2514.0,1045.0,198.0,3172.0,2615.0,1954.0,2548.0,900.0,210.0,3148.0,2541.0,1813.0,2267.0,857.0,192.0,2956.0,2491.0,1873.0,2410.0
125,CLASSON AV,40.688873,-73.96007,340.0,325.0,1239.0,1943.0,1998.0,1322.0,343.0,247.0,1049.0,1665.0,1667.0,918.0,133.0,1265.0,2851.0,1677.0,3330.0,1265.0,121.0,1276.0,2969.0,1772.0,3353.0,1351.0,110.0,1047.0,3023.0,1845.0,3523.0,1334.0,165.0,1211.0,3044.0,1876.0,3227.0,1370.0,143.0,1137.0,2982.0,2164.0,3333.0
126,NEW LOTS AV,40.6663015,-73.88371579999998,457.0,723.0,1225.0,1642.0,1659.0,1204.0,456.0,568.0,924.0,1350.0,1226.0,928.0,406.0,2455.0,2493.0,2250.0,3436.0,1349.0,468.0,2560.0,2451.0,2275.0,3478.0,1492.0,444.0,2559.0,2325.0,2407.0,3432.0,1422.0,486.0,2537.0,2197.0,2264.0,3164.0,1306.0,438.0,2286.0,2361.0,2363.0,3172.0
127,GRANT AV,40.6768777,-73.86534619999998,432.0,833.0,1482.0,1664.0,1620.0,1016.0,409.0,573.0,1108.0,1231.0,1242.0,825.0,291.0,2216.0,2446.0,2094.0,2905.0,1141.0,328.0,1063.0,652.0,2033.0,2959.0,1336.0,308.0,2270.0,2557.0,2027.0,2985.0,1276.0,376.0,2211.0,2463.0,2006.0,2747.0,1231.0,350.0,2068.0,2347.0,2160.0,2813.0
128,STERLING ST,40.6632908,-73.951044,236.0,365.0,1343.0,1627.0,1512.0,869.0,269.0,273.0,1086.0,1284.0,1184.0,663.0,121.0,1538.0,2969.0,2018.0,3140.0,1125.0,186.0,1655.0,2964.0,2010.0,3175.0,1261.0,196.0,1625.0,2960.0,2076.0,2983.0,1218.0,220.0,1547.0,2740.0,2033.0,2900.0,1121.0,223.0,1467.0,2913.0,2100.0,2789.0
129,PROSPECT AV,40.66541369999999,-73.99292590000002,318.0,257.0,620.0,860.0,942.0,603.0,193.0,157.0,425.0,629.0,729.0,434.0,149.0,1590.0,3288.0,1878.0,2923.0,879.0,133.0,1597.0,3458.0,1936.0,2961.0,1045.0,168.0,1620.0,3344.0,1980.0,3019.0,1115.0,214.0,1612.0,3413.0,1810.0,2950.0,1045.0,198.0,1733.0,3200.0,2001.0,2586.0
130,18 ST,40.74122390000001,-73.9980319,179.0,157.0,1181.0,2314.0,1893.0,699.0,163.0,78.0,424.0,996.0,1036.0,422.0,84.0,789.0,3322.0,3048.0,4838.0,1251.0,136.0,838.0,3859.0,3178.0,5464.0,1528.0,179.0,842.0,3634.0,3285.0,5371.0,1591.0,206.0,797.0,3641.0,3269.0,5452.0,1897.0,249.0,761.0,3652.0,3400.0,5059.0
131,SARATOGA AV,40.669094,-73.91828199999998,330.0,603.0,1209.0,1399.0,1492.0,981.0,336.0,385.0,912.0,1020.0,1162.0,809.0,232.0,2328.0,2296.0,2090.0,3214.0,1179.0,261.0,2436.0,2322.0,1963.0,3282.0,1231.0,238.0,2443.0,2318.0,1976.0,3341.0,1346.0,287.0,2389.0,2165.0,1854.0,3159.0,1219.0,235.0,2140.0,2229.0,2091.0,3024.0
132,WILSON AV,40.6887823,-73.90467240000001,10.0,0.0,0.0,0.0,0.0,0.0,0.0,3.0,0.0,0.0,0.0,0.0,0.0,1283.0,1940.0,1543.0,2293.0,1089.0,167.0,1356.0,2081.0,1578.0,2491.0,1205.0,199.0,1370.0,2075.0,1576.0,2505.0,1309.0,206.0,1278.0,2044.0,1590.0,2370.0,1125.0,240.0,1242.0,1940.0,1776.0,2281.0
133,V.CORTLANDT PK,40.89642429999999,-73.8852842,261.0,715.0,1544.0,1580.0,1451.0,825.0,247.0,432.0,1068.0,1239.0,1058.0,599.0,131.0,2780.0,2413.0,1377.0,2295.0,783.0,148.0,2899.0,2405.0,1483.0,2357.0,840.0,178.0,2752.0,2461.0,1496.0,,,179.0,2675.0,2365.0,1432.0,2198.0,790.0,193.0,2505.0,2215.0,1608.0,2279.0
134,WESTCHESTER SQ,40.840124700000004,-73.84282579999999,329.0,632.0,1418.0,1680.0,1467.0,828.0,300.0,450.0,811.0,1140.0,1141.0,701.0,163.0,2248.0,2728.0,2606.0,3305.0,1125.0,226.0,2387.0,2860.0,2662.0,3460.0,1143.0,236.0,2433.0,2777.0,2787.0,3378.0,1212.0,251.0,2270.0,2708.0,2655.0,3201.0,1147.0,228.0,2148.0,2860.0,2721.0,3127.0
135,FAR ROCKAWAY,40.6077527,-73.7517548,339.0,735.0,1103.0,1348.0,1421.0,862.0,297.0,549.0,839.0,1043.0,1051.0,780.0,229.0,2167.0,1697.0,1643.0,2707.0,997.0,284.0,2217.0,1652.0,1643.0,2909.0,981.0,304.0,2195.0,1748.0,1808.0,2763.0,950.0,291.0,2056.0,1558.0,1614.0,2642.0,849.0,306.0,1932.0,1657.0,1847.0,2716.0
136,WOODLAWN,40.88603699999999,-73.878751,277.0,629.0,1294.0,1366.0,1261.0,832.0,248.0,386.0,740.0,991.0,1059.0,587.0,165.0,2407.0,1798.0,1438.0,1676.0,665.0,179.0,2492.0,1896.0,1447.0,1732.0,750.0,236.0,2558.0,1844.0,1561.0,1927.0,751.0,231.0,2426.0,1897.0,1435.0,1637.0,702.0,195.0,2230.0,1764.0,1453.0,1724.0
137,CORTELYOU RD,40.6412697,-73.9639694,,,,,,,,,,,,,,,,,,,,,,,,,,,,,,,,,,,,,,,,,
138,BERGEN ST,40.686083200000006,-73.9909074,130.0,40.0,274.0,508.0,619.0,436.0,148.0,55.0,262.0,476.0,587.0,285.0,39.0,577.0,2329.0,1096.0,2030.0,587.0,36.0,557.0,1774.0,1099.0,2085.0,693.0,43.0,674.0,2394.0,985.0,2156.0,796.0,77.0,611.0,2404.0,1101.0,2214.0,711.0,71.0,569.0,2216.0,1218.0,2127.0
139,BEDFORD PK BLVD,40.8732636,-73.8871965,258.0,500.0,854.0,969.0,788.0,532.0,240.0,318.0,597.0,898.0,1147.0,408.0,146.0,1739.0,1839.0,2487.0,2504.0,1100.0,207.0,1863.0,1801.0,2131.0,2654.0,1130.0,233.0,1829.0,1797.0,2209.0,2873.0,1100.0,237.0,1835.0,1882.0,2329.0,2703.0,1116.0,216.0,1687.0,1756.0,2384.0,2046.0
140,HARLEM 148 ST,40.8240504,-73.9369385,249.0,301.0,1132.0,1376.0,1238.0,859.0,233.0,208.0,743.0,987.0,1010.0,637.0,109.0,1226.0,2001.0,1528.0,1940.0,888.0,148.0,1345.0,1973.0,1420.0,2178.0,890.0,128.0,1381.0,2008.0,1665.0,1957.0,983.0,191.0,1276.0,2024.0,1459.0,2076.0,893.0,174.0,1173.0,2051.0,1554.0,2083.0
141,BAY RIDGE-95 ST,40.6167174,-74.0308527,218.0,410.0,1284.0,1359.0,1360.0,649.0,164.0,298.0,955.0,1023.0,921.0,498.0,121.0,2140.0,2514.0,1593.0,2574.0,770.0,157.0,2164.0,2593.0,1573.0,2632.0,829.0,190.0,2216.0,2697.0,1531.0,2669.0,895.0,174.0,2116.0,2508.0,1569.0,2473.0,896.0,202.0,2010.0,2369.0,1583.0,2281.0
142,CLINTON-WASH AV,40.683498900000004,-73.9668944,347.0,335.0,1742.0,2185.0,2193.0,1244.0,363.0,224.0,1507.0,2060.0,1714.0,787.0,165.0,1564.0,4026.0,2125.0,3345.0,1116.0,144.0,1624.0,4251.0,2105.0,3504.0,1234.0,157.0,1623.0,4281.0,2171.0,3598.0,1197.0,194.0,1537.0,4347.0,2079.0,3576.0,1420.0,178.0,1435.0,4254.0,2344.0,3476.0
143,KINGSTON-THROOP,40.679826500000004,-73.94112940000001,730.0,484.0,1857.0,2267.0,2268.0,1603.0,627.0,382.0,1452.0,2006.0,1923.0,1156.0,349.0,1586.0,3318.0,2197.0,3268.0,1370.0,336.0,1697.0,3342.0,2196.0,3323.0,1661.0,293.0,1706.0,3426.0,2255.0,3160.0,1715.0,352.0,1645.0,3407.0,2205.0,3291.0,1757.0,372.0,1530.0,3366.0,2410.0,3020.0
144,ST LAWRENCE AV,40.8315326,-73.8672593,401.0,669.0,1016.0,1185.0,1252.0,856.0,429.0,433.0,780.0,1055.0,1046.0,732.0,248.0,1714.0,1608.0,1516.0,1846.0,960.0,286.0,1711.0,1612.0,1302.0,1969.0,921.0,304.0,1718.0,1634.0,1478.0,2027.0,996.0,319.0,1637.0,1583.0,1528.0,1933.0,948.0,306.0,1610.0,1606.0,1631.0,1921.0
145,176 ST,40.8484597,-73.9117411,231.0,639.0,1096.0,1395.0,1140.0,783.0,260.0,448.0,799.0,947.0,948.0,652.0,209.0,1817.0,2169.0,1849.0,2107.0,831.0,239.0,1909.0,2198.0,1797.0,2135.0,888.0,223.0,1983.0,2151.0,1756.0,2239.0,949.0,236.0,1853.0,2090.0,1744.0,2056.0,869.0,207.0,1818.0,2041.0,1861.0,2149.0
146,FULTON ST,40.709893,-74.0079818,290.0,237.0,1070.0,2039.0,2172.0,1149.0,213.0,237.0,917.0,1718.0,1587.0,751.0,89.0,910.0,1598.0,2092.0,2455.0,798.0,52.0,984.0,1613.0,2050.0,2531.0,921.0,75.0,1004.0,1672.0,1936.0,2508.0,936.0,61.0,1046.0,1601.0,1952.0,2444.0,908.0,69.0,840.0,1555.0,2087.0,2462.0
147,AVENUE J,40.6252684,-73.9607296,153.0,513.0,1222.0,1353.0,1254.0,606.0,146.0,389.0,1300.0,1434.0,1341.0,599.0,84.0,1653.0,2743.0,2001.0,2844.0,888.0,110.0,1680.0,2688.0,1933.0,2839.0,886.0,123.0,1632.0,2433.0,1750.0,2459.0,781.0,129.0,1451.0,2202.0,1755.0,2017.0,753.0,132.0,1501.0,2292.0,1979.0,2008.0
148,183 ST,40.8583924,-73.90397810000002,264.0,760.0,1075.0,1023.0,958.0,580.0,184.0,484.0,842.0,864.0,755.0,530.0,204.0,2006.0,1963.0,1755.0,2036.0,939.0,259.0,2091.0,1953.0,1512.0,2091.0,979.0,283.0,2133.0,1947.0,1537.0,2099.0,951.0,275.0,2022.0,2021.0,1676.0,2077.0,928.0,257.0,1984.0,2060.0,1798.0,1980.0
149,18 AV,40.6201053,-73.9894661,90.0,570.0,1550.0,1297.0,1160.0,439.0,104.0,387.0,1248.0,1151.0,949.0,350.0,69.0,3212.0,4123.0,2618.0,3582.0,986.0,186.0,3289.0,4079.0,2636.0,3574.0,1100.0,166.0,3289.0,4166.0,2968.0,3486.0,986.0,191.0,3123.0,3578.0,2451.0,3157.0,954.0,180.0,3018.0,3741.0,2989.0,3282.0
150,KINGSTON AV,40.669284499999996,-73.9422927,238.0,281.0,904.0,1121.0,1181.0,894.0,270.0,283.0,1054.0,1280.0,1150.0,690.0,172.0,1150.0,2301.0,1587.0,2224.0,1068.0,177.0,1184.0,2294.0,1636.0,2367.0,1073.0,203.0,1217.0,2304.0,1741.0,2361.0,1208.0,235.0,1066.0,2090.0,1860.0,2133.0,1053.0,228.0,1038.0,2161.0,1971.0,2069.0
151,BEVERLEY ROAD,40.644229100000004,-73.96449799999998,278.0,304.0,815.0,1023.0,1146.0,751.0,251.0,273.0,773.0,998.0,1024.0,589.0,109.0,1018.0,1589.0,1010.0,1778.0,804.0,158.0,1020.0,1645.0,1100.0,1903.0,923.0,177.0,1059.0,1519.0,953.0,1847.0,915.0,192.0,939.0,1571.0,1018.0,1734.0,978.0,193.0,977.0,1549.0,1036.0,1706.0
152,71 ST,40.619621200000005,-73.99877699999998,117.0,724.0,1574.0,1163.0,1086.0,535.0,80.0,417.0,1311.0,970.0,843.0,453.0,77.0,2115.0,2396.0,1151.0,1704.0,545.0,104.0,2135.0,2474.0,1151.0,1920.0,634.0,91.0,2145.0,2438.0,1267.0,1803.0,530.0,154.0,2034.0,2482.0,1187.0,1713.0,628.0,113.0,2008.0,2273.0,1190.0,1639.0
153,ST. GEORGE,40.64400390000001,-74.07332480000001,351.0,484.0,1299.0,1279.0,1373.0,744.0,272.0,307.0,604.0,682.0,680.0,391.0,147.0,3741.0,2703.0,1834.0,5221.0,884.0,225.0,3988.0,2774.0,1878.0,5465.0,962.0,218.0,3777.0,2854.0,1933.0,5319.0,988.0,216.0,3694.0,2806.0,1656.0,5196.0,979.0,219.0,3416.0,2364.0,1711.0,4612.0
154,MT EDEN AV,40.844528499999996,-73.9146157,262.0,609.0,1068.0,1170.0,1031.0,783.0,271.0,368.0,755.0,899.0,843.0,551.0,199.0,1707.0,1869.0,1721.0,1966.0,770.0,237.0,1789.0,1881.0,1623.0,2097.0,947.0,247.0,1810.0,1959.0,1725.0,2173.0,900.0,233.0,1701.0,1912.0,1625.0,1961.0,815.0,237.0,1649.0,1850.0,1562.0,1986.0
155,MARBLE HILL-225,40.8743487,-73.91043309999998,110.0,446.0,984.0,1208.0,1137.0,590.0,92.0,305.0,654.0,982.0,875.0,425.0,68.0,1469.0,1602.0,1300.0,1605.0,531.0,63.0,1507.0,1613.0,1359.0,1621.0,534.0,95.0,1543.0,1587.0,1402.0,1586.0,521.0,84.0,1453.0,1606.0,1340.0,1547.0,507.0,90.0,1380.0,1565.0,1466.0,1585.0
156,174-175 STS,40.846524,-73.90972690000001,237.0,584.0,1186.0,1293.0,1047.0,583.0,240.0,380.0,778.0,929.0,877.0,461.0,110.0,1399.0,1864.0,1610.0,1742.0,560.0,146.0,1429.0,1990.0,1665.0,1881.0,612.0,166.0,1416.0,2007.0,1630.0,1895.0,557.0,118.0,1389.0,1955.0,1622.0,1789.0,544.0,147.0,1329.0,1916.0,1690.0,1858.0
157,33 ST-RAWSON ST,40.744587,-73.93099699999998,126.0,456.0,1156.0,1512.0,1091.0,314.0,74.0,230.0,473.0,743.0,601.0,249.0,128.0,2590.0,5923.0,5888.0,6756.0,1843.0,165.0,2586.0,5871.0,6170.0,7157.0,1987.0,191.0,2804.0,5972.0,6036.0,6902.0,2061.0,183.0,2644.0,5963.0,5901.0,7280.0,2008.0,175.0,2052.0,5055.0,5068.0,4783.0
158,CITY HALL,40.7135245,-74.00671009999998,77.0,87.0,546.0,979.0,835.0,302.0,46.0,67.0,351.0,658.0,630.0,259.0,24.0,659.0,2279.0,2134.0,3526.0,707.0,85.0,711.0,2586.0,2353.0,3696.0,664.0,82.0,709.0,2419.0,2308.0,3794.0,682.0,92.0,693.0,2384.0,2131.0,3382.0,664.0,85.0,592.0,2266.0,2269.0,3165.0
159,182-183 STS,40.8560934,-73.90102949999998,198.0,651.0,1088.0,1164.0,1005.0,603.0,250.0,442.0,843.0,988.0,890.0,562.0,194.0,1650.0,1669.0,1322.0,1349.0,562.0,176.0,1649.0,1581.0,1363.0,1386.0,583.0,212.0,1662.0,1681.0,1402.0,1448.0,623.0,163.0,1577.0,1667.0,1365.0,1392.0,565.0,200.0,1574.0,1618.0,1433.0,1387.0
160,PRESIDENT ST,40.668158500000004,-73.95065859999998,266.0,224.0,958.0,1141.0,1133.0,639.0,298.0,201.0,642.0,850.0,880.0,514.0,100.0,1254.0,2446.0,1755.0,2869.0,947.0,245.0,1273.0,2531.0,1792.0,2710.0,850.0,162.0,1269.0,2434.0,1864.0,2764.0,982.0,158.0,1244.0,2308.0,1700.0,2573.0,925.0,170.0,1068.0,2270.0,1751.0,2426.0
161,77 ST,40.7736346,-73.95982939999998,155.0,362.0,1205.0,1242.0,1001.0,510.0,85.0,228.0,791.0,868.0,698.0,324.0,76.0,1805.0,2367.0,1176.0,1790.0,563.0,97.0,1891.0,2448.0,1193.0,1824.0,640.0,104.0,1866.0,2385.0,1196.0,1814.0,597.0,112.0,1822.0,2477.0,1292.0,1814.0,590.0,94.0,1690.0,2252.0,1156.0,1723.0
162,GUN HILL RD,40.87773920000001,-73.86630459999998,225.0,485.0,884.0,1009.0,775.0,551.0,169.0,298.0,588.0,741.0,674.0,484.0,159.0,2426.0,1909.0,1565.0,2247.0,836.0,185.0,2447.0,2001.0,1541.0,2323.0,913.0,195.0,2482.0,1956.0,1648.0,2194.0,909.0,222.0,2393.0,1910.0,1591.0,2168.0,749.0,201.0,2289.0,1849.0,1744.0,2112.0
163,79 ST,40.783934,-73.979917,113.0,702.0,1621.0,1214.0,894.0,400.0,63.0,,,933.0,717.0,383.0,55.0,2346.0,2742.0,1344.0,1520.0,451.0,91.0,2447.0,2876.0,1337.0,1626.0,500.0,85.0,2398.0,2839.0,1349.0,1466.0,440.0,107.0,2295.0,2880.0,1371.0,1615.0,549.0,94.0,2241.0,2764.0,1400.0,1475.0
164,190 ST,40.858887700000004,-73.93422159999999,150.0,231.0,1005.0,1317.0,922.0,436.0,109.0,190.0,768.0,1131.0,705.0,279.0,55.0,1235.0,1958.0,1042.0,1186.0,325.0,63.0,1291.0,2079.0,1111.0,1357.0,386.0,54.0,1259.0,2140.0,1286.0,1300.0,411.0,46.0,1230.0,1964.0,1122.0,1264.0,379.0,41.0,1181.0,1921.0,1186.0,1301.0
165,20 AV,40.617271,-73.9847709,81.0,574.0,1241.0,1181.0,985.0,383.0,62.0,334.0,992.0,958.0,758.0,348.0,50.0,1776.0,1800.0,1031.0,1432.0,424.0,64.0,1777.0,1933.0,1035.0,1447.0,466.0,72.0,1792.0,1844.0,996.0,1441.0,479.0,65.0,1644.0,1858.0,1047.0,1392.0,490.0,67.0,1665.0,1826.0,1057.0,1504.0
166,25 ST,40.6604039,-73.99810550000001,232.0,246.0,611.0,763.0,717.0,467.0,162.0,135.0,470.0,565.0,556.0,362.0,98.0,1030.0,1972.0,1250.0,1839.0,701.0,125.0,1113.0,1951.0,1298.0,1852.0,680.0,155.0,1050.0,1951.0,1271.0,1704.0,687.0,173.0,1037.0,1942.0,1229.0,1807.0,688.0,144.0,1008.0,1918.0,1274.0,1846.0
167,BRIARWOOD,40.7093666,-73.81988539999998,143.0,393.0,985.0,1046.0,951.0,516.0,140.0,303.0,760.0,859.0,707.0,364.0,111.0,1769.0,2013.0,1432.0,1872.0,672.0,129.0,1916.0,2041.0,1409.0,1885.0,683.0,108.0,1994.0,2030.0,1468.0,1903.0,714.0,139.0,1795.0,1937.0,1460.0,1810.0,636.0,123.0,1693.0,1854.0,1540.0,1817.0
168,AQUEDUCT RACETR,40.6721498,-73.8356843,227.0,166.0,122.0,472.0,935.0,560.0,214.0,149.0,93.0,412.0,829.0,355.0,139.0,182.0,155.0,343.0,519.0,244.0,113.0,157.0,159.0,404.0,487.0,248.0,96.0,171.0,167.0,421.0,630.0,356.0,108.0,198.0,152.0,375.0,574.0,263.0,117.0,147.0,162.0,450.0,743.0
169,PENNSYLVANIA AV,40.6646911,-73.8941747,217.0,438.0,948.0,1025.0,955.0,578.0,188.0,285.0,660.0,720.0,760.0,470.0,117.0,1621.0,1721.0,1492.0,1746.0,643.0,143.0,1724.0,1830.0,1380.0,1839.0,680.0,122.0,1711.0,1738.0,1469.0,1788.0,649.0,170.0,1635.0,1558.0,1478.0,1744.0,620.0,157.0,1505.0,1682.0,1588.0,1591.0
170,AVENUE M,40.6180725,-73.9593745,67.0,334.0,1004.0,1041.0,913.0,453.0,73.0,291.0,1071.0,1331.0,1025.0,430.0,48.0,1689.0,2678.0,1856.0,2267.0,528.0,42.0,1380.0,2950.0,2052.0,2284.0,548.0,40.0,1745.0,2490.0,1593.0,2231.0,477.0,71.0,1192.0,2443.0,1691.0,1765.0,511.0,72.0,1511.0,2540.0,1947.0,1690.0
171,OCEAN PKWY,40.5762935,-73.9684997,97.0,262.0,778.0,980.0,802.0,324.0,67.0,224.0,666.0,884.0,752.0,287.0,51.0,916.0,1234.0,1159.0,1213.0,387.0,37.0,856.0,1230.0,1207.0,1315.0,380.0,55.0,887.0,1250.0,1283.0,1309.0,379.0,81.0,843.0,1143.0,1163.0,1098.0,334.0,59.0,830.0,1161.0,1123.0,1073.0
172,AVENUE H,40.6297445,-73.96166170000001,137.0,234.0,759.0,906.0,839.0,475.0,150.0,169.0,644.0,838.0,716.0,418.0,84.0,884.0,1985.0,1720.0,1936.0,728.0,95.0,905.0,2057.0,1628.0,1955.0,815.0,100.0,912.0,1912.0,1628.0,1981.0,752.0,84.0,834.0,1881.0,1512.0,1773.0,755.0,92.0,773.0,1527.0,1338.0,1393.0
173,JUNIUS ST,40.67504,-73.904496,165.0,259.0,570.0,708.0,740.0,501.0,122.0,188.0,420.0,638.0,656.0,398.0,109.0,898.0,1013.0,1015.0,1497.0,496.0,106.0,921.0,1052.0,1083.0,1528.0,600.0,128.0,947.0,1044.0,1068.0,1532.0,525.0,103.0,879.0,985.0,1045.0,1430.0,537.0,115.0,818.0,1070.0,1081.0,1463.0
174,NECK RD,40.595153100000005,-73.9550266,78.0,393.0,1026.0,874.0,764.0,328.0,65.0,267.0,884.0,758.0,628.0,291.0,52.0,1559.0,1804.0,823.0,1274.0,400.0,46.0,1539.0,1912.0,826.0,1432.0,427.0,47.0,1560.0,1843.0,857.0,1357.0,458.0,59.0,1453.0,1806.0,867.0,1393.0,451.0,76.0,1464.0,1780.0,880.0,1305.0
175,VAN SICLEN AV,40.67274219999999,-73.8903155,233.0,329.0,676.0,767.0,884.0,604.0,220.0,251.0,501.0,676.0,674.0,453.0,133.0,1222.0,1239.0,1130.0,1761.0,683.0,159.0,1256.0,1295.0,1073.0,1748.0,689.0,180.0,1246.0,1277.0,1097.0,1676.0,724.0,181.0,1247.0,1209.0,1066.0,1641.0,655.0,171.0,1077.0,1184.0,1115.0,1609.0
176,138/GRAND CONC,40.8132249,-73.9298111,255.0,484.0,716.0,842.0,817.0,377.0,230.0,296.0,398.0,545.0,583.0,311.0,199.0,1152.0,1318.0,1359.0,1587.0,457.0,274.0,1220.0,1486.0,1386.0,1598.0,506.0,261.0,1166.0,1483.0,1501.0,1709.0,558.0,259.0,1117.0,1304.0,1384.0,1460.0,484.0,208.0,1147.0,1363.0,1413.0,1473.0
177,BEVERLY RD,40.8322067,-73.3848891,104.0,375.0,799.0,823.0,699.0,363.0,119.0,275.0,587.0,694.0,468.0,293.0,75.0,1512.0,1561.0,908.0,865.0,322.0,79.0,1559.0,1688.0,875.0,890.0,379.0,81.0,1566.0,1648.0,914.0,865.0,380.0,96.0,1485.0,1665.0,876.0,903.0,336.0,76.0,1424.0,1535.0,985.0,878.0
178,75 AV,40.718331,-73.837324,85.0,164.0,672.0,756.0,608.0,331.0,78.0,101.0,539.0,599.0,437.0,188.0,37.0,845.0,1615.0,719.0,948.0,310.0,43.0,876.0,1748.0,777.0,962.0,343.0,36.0,890.0,1650.0,744.0,980.0,322.0,41.0,901.0,1667.0,716.0,954.0,303.0,39.0,820.0,1656.0,776.0,916.0
179,BUSHWICK AV,40.7002958,-73.94116439999998,0.0,0.0,1.0,0.0,0.0,0.0,0.0,0.0,0.0,0.0,0.0,0.0,2.0,570.0,863.0,626.0,922.0,480.0,78.0,602.0,878.0,597.0,947.0,489.0,87.0,589.0,882.0,691.0,996.0,551.0,106.0,595.0,861.0,665.0,990.0,463.0,81.0,589.0,852.0,748.0,926.0
180,BEACH 67 ST,40.5909714,-73.79631690000001,139.0,312.0,507.0,615.0,523.0,392.0,159.0,207.0,377.0,510.0,441.0,334.0,107.0,1021.0,737.0,659.0,880.0,404.0,128.0,997.0,735.0,672.0,930.0,487.0,132.0,1041.0,715.0,697.0,888.0,455.0,149.0,980.0,728.0,687.0,857.0,442.0,132.0,943.0,717.0,682.0,972.0
181,WHITLOCK AV,40.82674420000001,-73.88634559999998,139.0,343.0,437.0,546.0,535.0,387.0,179.0,184.0,324.0,439.0,470.0,361.0,107.0,825.0,822.0,786.0,1082.0,375.0,84.0,815.0,845.0,756.0,1100.0,430.0,104.0,845.0,933.0,770.0,1110.0,414.0,89.0,828.0,839.0,779.0,1050.0,436.0,96.0,796.0,785.0,828.0,1064.0
182,W 8 ST-AQUARIUM,40.57612779999999,-73.97596539999998,34.0,123.0,449.0,652.0,473.0,160.0,60.0,88.0,376.0,530.0,409.0,127.0,22.0,575.0,1049.0,995.0,825.0,193.0,20.0,563.0,1133.0,985.0,830.0,199.0,14.0,578.0,1085.0,1201.0,885.0,192.0,20.0,523.0,774.0,754.0,829.0,172.0,20.0,533.0,1002.0,980.0,725.0
183,PARK PLACE,40.7132422,-74.0092559,65.0,71.0,334.0,551.0,553.0,214.0,23.0,42.0,255.0,422.0,357.0,139.0,30.0,412.0,1937.0,1207.0,2314.0,383.0,41.0,485.0,2094.0,1259.0,2386.0,442.0,34.0,470.0,2107.0,1316.0,2384.0,467.0,57.0,434.0,1881.0,1196.0,2137.0,399.0,41.0,400.0,1805.0,1228.0,2007.0
184,215 ST,40.8695946,-73.9153019,62.0,111.0,452.0,524.0,495.0,222.0,46.0,81.0,245.0,394.0,318.0,143.0,34.0,375.0,567.0,648.0,639.0,210.0,48.0,379.0,609.0,657.0,727.0,299.0,40.0,404.0,621.0,622.0,711.0,265.0,57.0,363.0,631.0,593.0,626.0,220.0,40.0,324.0,604.0,669.0,582.0
185,HOWARD BCH JFK,40.660476,-73.83030099999998,258.0,363.0,528.0,560.0,510.0,398.0,168.0,153.0,262.0,482.0,524.0,432.0,167.0,638.0,551.0,591.0,781.0,384.0,137.0,680.0,541.0,531.0,713.0,433.0,182.0,666.0,482.0,569.0,641.0,408.0,161.0,662.0,458.0,461.0,690.0,431.0,182.0,580.0,420.0,548.0,675.0
186,BEACH 25 ST,40.59946790000001,-73.7618536,177.0,249.0,399.0,414.0,439.0,398.0,163.0,178.0,304.0,317.0,343.0,292.0,111.0,1005.0,687.0,722.0,1096.0,441.0,142.0,1055.0,613.0,753.0,1068.0,468.0,169.0,1048.0,687.0,783.0,1134.0,481.0,170.0,937.0,594.0,664.0,1050.0,455.0,142.0,906.0,647.0,726.0,1012.0
187,BEACH 60 ST,40.59244,-73.78928300000003,156.0,274.0,458.0,502.0,514.0,398.0,167.0,209.0,323.0,434.0,385.0,324.0,117.0,915.0,649.0,701.0,806.0,330.0,140.0,967.0,690.0,707.0,869.0,381.0,143.0,960.0,703.0,692.0,863.0,377.0,128.0,891.0,703.0,642.0,856.0,352.0,141.0,843.0,695.0,696.0,823.0
188,ATLANTIC AV,40.675554,-73.90305759999998,37.0,62.0,155.0,151.0,147.0,104.0,51.0,45.0,115.0,112.0,138.0,73.0,19.0,605.0,647.0,405.0,721.0,158.0,28.0,643.0,646.0,454.0,778.0,216.0,45.0,634.0,594.0,432.0,695.0,190.0,38.0,620.0,629.0,385.0,709.0,187.0,46.0,612.0,587.0,527.0,717.0
189,BEACH 36 ST,40.595532,-73.7681238,113.0,130.0,218.0,290.0,271.0,197.0,99.0,107.0,177.0,217.0,245.0,175.0,64.0,472.0,365.0,360.0,613.0,235.0,91.0,476.0,366.0,382.0,607.0,259.0,74.0,498.0,357.0,370.0,585.0,269.0,88.0,482.0,307.0,371.0,569.0,231.0,83.0,430.0,338.0,378.0,551.0
190,55 ST,40.6315514,-73.9956328,57.0,113.0,353.0,292.0,261.0,141.0,41.0,127.0,414.0,433.0,571.0,167.0,35.0,486.0,894.0,740.0,1115.0,227.0,33.0,439.0,947.0,710.0,1031.0,246.0,40.0,432.0,874.0,691.0,979.0,183.0,40.0,390.0,679.0,627.0,693.0,172.0,35.0,432.0,762.0,820.0,849.0
191,104 ST,40.695145600000004,-73.8443046,87.0,234.0,303.0,325.0,276.0,149.0,42.0,126.0,202.0,219.0,247.0,184.0,103.0,2244.0,1598.0,1198.0,1707.0,490.0,130.0,2318.0,1708.0,1310.0,1660.0,591.0,122.0,2303.0,1689.0,1341.0,1739.0,598.0,143.0,2178.0,1694.0,1268.0,1675.0,497.0,126.0,2091.0,1688.0,1239.0,1546.0
192,BEACH 44 ST,40.592920899999996,-73.77594839999998,51.0,121.0,198.0,254.0,247.0,154.0,74.0,69.0,145.0,181.0,179.0,128.0,48.0,415.0,233.0,303.0,440.0,183.0,53.0,394.0,290.0,313.0,481.0,189.0,73.0,408.0,315.0,300.0,461.0,190.0,74.0,408.0,259.0,266.0,424.0,168.0,63.0,391.0,240.0,305.0,441.0
193,WORLD TRADE CTR,40.712645200000004,-74.00989799999998,375.0,378.0,2118.0,4360.0,3962.0,1342.0,276.0,258.0,1577.0,3405.0,3214.0,1036.0,118.0,2816.0,9155.0,5824.0,12224.0,1957.0,89.0,3025.0,9442.0,5987.0,13011.0,2248.0,65.0,2768.0,9656.0,6072.0,12691.0,1934.0,50.0,2860.0,9998.0,6053.0,12260.0,1845.0,80.0,2703.0,9395.0,6605.0,11905.0
194,NASSAU AV,40.7238944,-73.9506777,794.0,750.0,3194.0,5174.0,5591.0,3107.0,799.0,487.0,2266.0,4123.0,3966.0,1838.0,218.0,2419.0,5167.0,3074.0,6294.0,1396.0,19.0,2544.0,,3230.0,,1587.0,3.0,2446.0,5555.0,3222.0,6272.0,1527.0,27.0,2380.0,5542.0,3405.0,6423.0,1521.0,39.0,2262.0,5473.0,3652.0,6143.0
195,39 AV,40.752689700000005,-73.9328056,76.0,21.0,19.0,27.0,35.0,3.0,2.0,22.0,23.0,18.0,23.0,53.0,67.0,583.0,1303.0,582.0,1429.0,444.0,96.0,629.0,1301.0,547.0,1534.0,662.0,105.0,654.0,1367.0,618.0,1483.0,728.0,114.0,653.0,1430.0,756.0,1590.0,702.0,108.0,606.0,,,
196,36 AV,40.7668516,-73.921313,387.0,4.0,4.0,6.0,9.0,1.0,0.0,4.0,5.0,4.0,7.0,63.0,152.0,1699.0,3128.0,1801.0,3913.0,1360.0,247.0,1734.0,3164.0,1674.0,4003.0,1721.0,243.0,1800.0,3143.0,1741.0,4113.0,1676.0,251.0,1676.0,3164.0,2019.0,3927.0,1498.0,274.0,1562.0,,,
197,BROADWAY,40.7623472,-73.9256595,570.0,4.0,16.0,12.0,2.0,2.0,0.0,4.0,3.0,1.0,0.0,91.0,186.0,2339.0,5178.0,2435.0,6390.0,2328.0,324.0,2501.0,5483.0,2309.0,6599.0,2773.0,445.0,2420.0,5521.0,2675.0,6470.0,2937.0,355.0,2326.0,5565.0,2754.0,6291.0,2814.0,382.0,2177.0,,,
198,COURT SQ-23 ST,40.748050799999994,-73.94704779999998,132.0,304.0,1067.0,1191.0,1104.0,677.0,134.0,173.0,812.0,989.0,867.0,410.0,82.0,1228.0,2445.0,1840.0,2559.0,482.0,25.0,1393.0,2465.0,1816.0,2746.0,595.0,25.0,1366.0,2444.0,1856.0,2565.0,521.0,29.0,1334.0,2456.0,2000.0,2610.0,579.0,36.0,1249.0,3087.0,2022.0,2513.0
199,ASTORIA DITMARS,40.7750119,-73.91211,807.0,41.0,177.0,140.0,55.0,21.0,19.0,35.0,10.0,5.0,8.0,193.0,369.0,4847.0,9325.0,5352.0,10348.0,3998.0,544.0,5085.0,9867.0,5626.0,10694.0,4840.0,663.0,5203.0,9911.0,5913.0,10492.0,4483.0,674.0,4937.0,9500.0,5238.0,10241.0,4466.0,651.0,4545.0,9275.0,5634.0,9986.0
200,CYPRESS HILLS,40.68994860000001,-73.87257310000003,40.0,3.0,23.0,9.0,3.0,2.0,4.0,6.0,6.0,2.0,5.0,30.0,38.0,667.0,567.0,457.0,634.0,184.0,37.0,689.0,601.0,488.0,639.0,218.0,50.0,665.0,564.0,465.0,626.0,177.0,48.0,637.0,578.0,465.0,586.0,181.0,45.0,623.0,557.0,436.0,622.0
201,30 AV,40.7668516,-73.921313,714.0,6.0,0.0,0.0,0.0,0.0,0.0,0.0,0.0,0.0,0.0,114.0,355.0,4841.0,9501.0,4302.0,9833.0,3758.0,576.0,5023.0,9844.0,4316.0,9990.0,4200.0,650.0,5065.0,9908.0,4395.0,9920.0,4401.0,593.0,4829.0,9901.0,4870.0,9521.0,4081.0,712.0,4375.0,,,
202,121 ST,40.7006094,-73.8281286,89.0,10.0,2.0,3.0,1.0,2.0,3.0,1.0,2.0,3.0,3.0,83.0,54.0,856.0,823.0,777.0,1114.0,335.0,83.0,908.0,917.0,763.0,1203.0,384.0,79.0,896.0,927.0,820.0,1214.0,386.0,77.0,842.0,891.0,782.0,1137.0,295.0,86.0,841.0,881.0,806.0,1140.0
203,75 ST-ELDERTS,40.69143649999999,-73.8665512,111.0,3.0,0.0,5.0,3.0,2.0,0.0,2.0,1.0,1.0,0.0,77.0,90.0,1668.0,1388.0,1117.0,1549.0,470.0,108.0,1721.0,1416.0,1094.0,1549.0,511.0,127.0,1699.0,1455.0,1131.0,1596.0,519.0,100.0,1674.0,1399.0,1154.0,1497.0,500.0,125.0,1581.0,1351.0,1117.0,1287.0
204,AVENUE X,40.589682200000006,-73.9742509,0.0,0.0,0.0,0.0,0.0,0.0,0.0,1.0,0.0,0.0,0.0,0.0,0.0,1057.0,1031.0,828.0,1077.0,390.0,62.0,1075.0,1084.0,844.0,1166.0,390.0,73.0,1041.0,1114.0,865.0,1099.0,429.0,79.0,966.0,986.0,761.0,1077.0,416.0,74.0,976.0,963.0,850.0,973.0
205,AVENUE P,40.6087814,-73.97290840000001,0.0,0.0,0.0,0.0,0.0,0.0,0.0,0.0,0.0,0.0,0.0,0.0,0.0,878.0,1003.0,472.0,841.0,201.0,40.0,890.0,1064.0,536.0,844.0,258.0,57.0,859.0,1006.0,513.0,823.0,258.0,42.0,780.0,868.0,433.0,645.0,241.0,31.0,803.0,976.0,513.0,756.0
206,85 ST-FOREST PK,40.6924861,-73.8590708,116.0,0.0,0.0,0.0,0.0,0.0,0.0,1.0,0.0,0.0,0.0,63.0,83.0,1531.0,1305.0,952.0,1307.0,450.0,79.0,1596.0,1287.0,964.0,1281.0,459.0,114.0,1625.0,1342.0,934.0,1285.0,505.0,79.0,1529.0,1275.0,926.0,1261.0,440.0,128.0,1469.0,1248.0,965.0,1202.0
207,WOODHAVEN BLVD,40.6939097,-73.85139269999998,132.0,3.0,0.0,0.0,0.0,2.0,0.0,0.0,0.0,0.0,0.0,113.0,100.0,1767.0,1593.0,1196.0,1627.0,510.0,123.0,1828.0,1675.0,1231.0,1630.0,600.0,115.0,1782.0,1658.0,1278.0,1709.0,574.0,108.0,1679.0,1576.0,1239.0,1607.0,527.0,128.0,1636.0,1566.0,1260.0,1585.0
208,METROPOLITAN AV,40.712132700000005,-73.889276,133.0,327.0,843.0,1243.0,1187.0,464.0,116.0,200.0,577.0,861.0,808.0,307.0,82.0,1677.0,1456.0,1335.0,2340.0,492.0,106.0,1814.0,1343.0,1328.0,2438.0,526.0,106.0,1789.0,1518.0,1511.0,2265.0,574.0,99.0,1702.0,1338.0,1330.0,2252.0,495.0,83.0,1712.0,1291.0,1301.0,
209,GREENPOINT AV,40.7301618,-73.9540458,386.0,483.0,1965.0,3039.0,3311.0,1748.0,476.0,352.0,1374.0,2269.0,2324.0,1181.0,142.0,1883.0,4705.0,2823.0,5307.0,1174.0,13.0,1958.0,4885.0,3054.0,5482.0,1215.0,12.0,1993.0,4960.0,3016.0,5500.0,1162.0,3.0,1884.0,5123.0,3045.0,5417.0,1152.0,0.0,1834.0,5004.0,3352.0,5457.0
